address,category,id,lat,lng,location,name,originalId,polarity,subCategory,details,reviews
"Via Emanuele Filiberto 173",accommodation,25,41.889888677386,12.506660893472,Rome,"Best Western Hotel President Roma",4adcdabef964a520255121e3,0,Hotel,http://tour-pedia.org/api/getPlaceDetails?id=25,http://tour-pedia.org/api/getReviewsByPlaceId?placeId=25
"Largo Antonio Sarti 4",accommodation,35,41.923368,12.468794,Rome,"Hotel Astrid",4adcdabff964a520365121e3,0,Hotel,http://tour-pedia.org/api/getPlaceDetails?id=35,http://tour-pedia.org/api/getReviewsByPlaceId?placeId=35
"Via Giovanni Amendola 61",accommodation,65,41.778243,12.356333,Rome,"San Giorgio",4adcdabff964a520785121e3,0,Hotel,http://tour-pedia.org/api/getPlaceDetails?id=65,http://tour-pedia.org/api/getReviewsByPlaceId?placeId=65
82,"Holiday Inn","Viale Castello della Magliana, 65",accommodation,Rome,41.822846748757,12.412326976514,http://tour-pedia.org/api/getPlaceDetails?id=82,http://tour-pedia.org/api/getReviewsByPlaceId?placeId=82
"36 Via Gino Borgatta",accommodation,83,41.88359404,12.33780982,Rome,Aurelia,4adcdac0f964a520ae5121e3,0,Hotel,http://tour-pedia.org/api/getPlaceDetails?id=83,http://tour-pedia.org/api/getReviewsByPlaceId?placeId=83
"1a Largo Antonio Beltramelli",accommodation,84,41.9097,12.5371,Rome,"Dina Roma",4adcdac0f964a520b05121e3,0,Hotel,http://tour-pedia.org/api/getPlaceDetails?id=84,http://tour-pedia.org/api/getReviewsByPlaceId?placeId=84
"20 Via Giovacchino Forzano",accommodation,86,41.9354,12.5109,Rome,"Happy Goose",4adcdac0f964a520b25121e3,0,Hotel,http://tour-pedia.org/api/getPlaceDetails?id=86,http://tour-pedia.org/api/getReviewsByPlaceId?placeId=86
"Via dei Gonzaga 159/e",accommodation,87,41.8782,12.4177,Rome,"Roma Bed & Breakfast",4adcdac0f964a520b55121e3,0,Hotel,http://tour-pedia.org/api/getPlaceDetails?id=87,http://tour-pedia.org/api/getReviewsByPlaceId?placeId=87
"51e Viale Vaticano",accommodation,88,41.912222,12.442113,Rome,"Villino Musei Vaticani",4adcdac0f964a520b75121e3,0,Hotel,http://tour-pedia.org/api/getPlaceDetails?id=88,http://tour-pedia.org/api/getReviewsByPlaceId?placeId=88
,accommodation,96,41.895853,12.537071,Rome,Piccionara,4f7a9b02e4b0bd4c7bdafda8,0,,http://tour-pedia.org/api/getPlaceDetails?id=96,http://tour-pedia.org/api/getReviewsByPlaceId?placeId=96
"Via Andrea Alciato 14-16",accommodation,623,41.904364,12.426471,Rome,"Hotel Waldorf Roma ***",4b184a0cf964a5204ad023e3,0,Hotel,http://tour-pedia.org/api/getPlaceDetails?id=623,http://tour-pedia.org/api/getReviewsByPlaceId?placeId=623
,accommodation,1001,41.737850916225,12.279983820229,Rome,"Satellite Palace Hotel",4bc72c6d6501c9b63cde3d29,0,Hotel,http://tour-pedia.org/api/getPlaceDetails?id=1001,http://tour-pedia.org/api/getReviewsByPlaceId?placeId=1001
"Via Flaminia Nuova 821",accommodation,1038,41.960884064103,12.480301103036,Rome,"Flaminio Village Bungalow Park Rome",4bc889e0dc55eee1bb89e8ac,0,Resort,http://tour-pedia.org/api/getPlaceDetails?id=1038,http://tour-pedia.org/api/getReviewsByPlaceId?placeId=1038
"Via Carlo Cavina, 40",accommodation,1041,41.980820108322,12.398736476898,Rome,"Castello Della Castelluccia Hotel Rome",4bc88a10dc55eee1d989e8ac,0,Hotel,http://tour-pedia.org/api/getPlaceDetails?id=1041,http://tour-pedia.org/api/getReviewsByPlaceId?placeId=1041
1044,"Petra Hotel & Residence Rome","Via Sante Vandi 124",accommodation,Rome,41.843707810804,12.607692876848,http://tour-pedia.org/api/getPlaceDetails?id=1044,http://tour-pedia.org/api/getReviewsByPlaceId?placeId=1044
"Via Kenia 31",accommodation,1049,41.822006,12.469687,Rome,"Eur Lake Bed & Breakfast Rome",4bc88a5ddc55eee10f8ae8ac,0,"Bed & Breakfast",http://tour-pedia.org/api/getPlaceDetails?id=1049,http://tour-pedia.org/api/getReviewsByPlaceId?placeId=1049
1061,"Cascina Palace","Via Attilio Benigni 7",accommodation,Rome,41.930040569908,12.560698685846,http://tour-pedia.org/api/getPlaceDetails?id=1061,http://tour-pedia.org/api/getReviewsByPlaceId?placeId=1061
"Via Emilio Morosini 18",accommodation,1063,41.886121,12.468488,Rome,"Kimama Bed & Breakfast Rome",4bc88aaedc55eee1508ae8ac,0,"Bed & Breakfast",http://tour-pedia.org/api/getPlaceDetails?id=1063,http://tour-pedia.org/api/getReviewsByPlaceId?placeId=1063
"Via Torre di Mezzavia 25",accommodation,1064,41.839249230655,12.593701907916,Rome,"Hotel Anagnina Rome",4bc88ab4dc55eee1568ae8ac,0,Hotel,http://tour-pedia.org/api/getPlaceDetails?id=1064,http://tour-pedia.org/api/getReviewsByPlaceId?placeId=1064
"Via Prenestina 944/C",accommodation,1073,41.891489634816,12.600265569088,Rome,"Eurostars Roma Congress Hotel Rome",4bc88afcdc55eee18e8ae8ac,0,Hotel,http://tour-pedia.org/api/getPlaceDetails?id=1073,http://tour-pedia.org/api/getReviewsByPlaceId?placeId=1073
"Viale Odone Belluzzi 301",accommodation,1121,41.778720239491,12.428428173327,Rome,"Girasolereale Bed And Breakfast Rome",4bc8f80a762beee144c13d38,0,"Bed & Breakfast",http://tour-pedia.org/api/getPlaceDetails?id=1121,http://tour-pedia.org/api/getReviewsByPlaceId?placeId=1121
1127,"Hotel Selva Candida Rome","Via di Selva Candida 200",accommodation,Rome,41.932115727218,12.377999973783,http://tour-pedia.org/api/getPlaceDetails?id=1127,http://tour-pedia.org/api/getReviewsByPlaceId?placeId=1127
"Via Francesco Aquilanti 110",accommodation,1161,41.870255,12.354911,Rome,"Abbraccio Bed & Breakfast Rome",4bcc5e18aeaaeee15af03d6d,0,"Bed & Breakfast",http://tour-pedia.org/api/getPlaceDetails?id=1161,http://tour-pedia.org/api/getReviewsByPlaceId?placeId=1161
"Via Cipro 56",accommodation,1162,41.906673,12.446081,Rome,"Perseo Bed & Breakfast Rome",4bcc5e1faeaaeee165f03d6d,0,"Bed & Breakfast",http://tour-pedia.org/api/getPlaceDetails?id=1162,http://tour-pedia.org/api/getReviewsByPlaceId?placeId=1162
"Via Emanuele Filiberto 109",accommodation,1163,41.891716,12.506054,Rome,"Trinity Bed & Breakfast Rome",4bcc607eaeaaeee10af53d6d,0,"Bed & Breakfast",http://tour-pedia.org/api/getPlaceDetails?id=1163,http://tour-pedia.org/api/getReviewsByPlaceId?placeId=1163
"Via Giovanni Prati 1",accommodation,1195,41.874244123981,12.465944945819,Rome,"Hotel Villa Rosa Rome",4bcf61480ffdce72ea69b2c0,0,Hotel,http://tour-pedia.org/api/getPlaceDetails?id=1195,http://tour-pedia.org/api/getReviewsByPlaceId?placeId=1195
"Via Eudo Giulioli, 13",accommodation,1196,41.84961225,12.57879824,Rome,"Hotel Cinecittà ***",4bcf614b0ffdce72eb69b2c0,0,Hotel,http://tour-pedia.org/api/getPlaceDetails?id=1196,http://tour-pedia.org/api/getReviewsByPlaceId?placeId=1196
"Lungomare Paolo Toscanelli 242 00121 Lido di Ostia",accommodation,1197,41.733348,12.2652458,Rome,"Surf Studio Beach Hotel Rome",4bcf614b0ffdce72ec69b2c0,0,Hotel,http://tour-pedia.org/api/getPlaceDetails?id=1197,http://tour-pedia.org/api/getReviewsByPlaceId?placeId=1197
"Viale Vasco de Gama 26 00121 Lido di Ostia Roma Ro",accommodation,1204,41.7335448,12.2781757,Rome,"Nettuno Hotel Cala Gonone",4bcf651a0ffdce72446db2c0,0,Hotel,http://tour-pedia.org/api/getPlaceDetails?id=1204,http://tour-pedia.org/api/getReviewsByPlaceId?placeId=1204
"Via Tiburtina, 998",accommodation,1212,41.924092181194,12.56822991832,Rome,"Motel Industrial Rome",4bcf7cda0ffdce72108ab2c0,0,Motel,http://tour-pedia.org/api/getPlaceDetails?id=1212,http://tour-pedia.org/api/getReviewsByPlaceId?placeId=1212
"Via di Castro Pretorio 42",accommodation,1227,41.90231,12.506377,Rome,"Tropical Bed & Breakfast Rome",4bd104e720cd996097a32e9e,0,"Bed & Breakfast",http://tour-pedia.org/api/getPlaceDetails?id=1227,http://tour-pedia.org/api/getReviewsByPlaceId?placeId=1227
"Via Matteo Boiardo, 30",accommodation,1228,41.8890233,12.5050021,Rome,"Hotel St John Rome",4bd1064d20cd99602da52e9e,0,Hotel,http://tour-pedia.org/api/getPlaceDetails?id=1228,http://tour-pedia.org/api/getReviewsByPlaceId?placeId=1228
"Via delle Antille 49",accommodation,1233,41.740103,12.280274,Rome,"Satellite Palace Hotel Rome",4bd1120f20cd99605ab12e9e,0,Hotel,http://tour-pedia.org/api/getPlaceDetails?id=1233,http://tour-pedia.org/api/getReviewsByPlaceId?placeId=1233
"Via di Pietralata, 320",accommodation,1245,41.924401339971,12.546311736598,Rome,"Salvatore Bed & Breakfast",4bd1acb45e0cce726ad1a184,0,"Bed & Breakfast",http://tour-pedia.org/api/getPlaceDetails?id=1245,http://tour-pedia.org/api/getReviewsByPlaceId?placeId=1245
"Via Aurelia 185 00165 Roma Roma (Latium) Italy",accommodation,1246,41.8948,12.416767,Rome,"San Peter Hotel Rome",4bd1ade55e0cce7212d3a184,0,Hotel,http://tour-pedia.org/api/getPlaceDetails?id=1246,http://tour-pedia.org/api/getReviewsByPlaceId?placeId=1246
"Via Wagner 4",accommodation,1249,41.914349,12.562651,Rome,"Spaziomax Bed & Breakfast Rome",4bd1c2ed5e0cce7232f3a184,0,"Bed & Breakfast",http://tour-pedia.org/api/getPlaceDetails?id=1249,http://tour-pedia.org/api/getReviewsByPlaceId?placeId=1249
"Via Anagni 116",accommodation,1250,41.971656825913,12.540578593645,Rome,"Number 116 Bed & Breakfast Rome",4bd1c2f15e0cce7236f3a184,0,"Bed & Breakfast",http://tour-pedia.org/api/getPlaceDetails?id=1250,http://tour-pedia.org/api/getReviewsByPlaceId?placeId=1250
"Via Andrea Noale, 291",accommodation,1251,41.913583159238,12.617862054812,Rome,Novotel,4bd1d1a85e0cce725b0aa284,0,Hotel,http://tour-pedia.org/api/getPlaceDetails?id=1251,http://tour-pedia.org/api/getReviewsByPlaceId?placeId=1251
"Lungomare Duca degli Abruzzi 72 00121 Lido di Osti",accommodation,1253,41.737135,12.253275,Rome,"Aran Blu Hotel Fiumicino",4bd1de5a5e0cce72bb19a284,0,Hotel,http://tour-pedia.org/api/getPlaceDetails?id=1253,http://tour-pedia.org/api/getReviewsByPlaceId?placeId=1253
,accommodation,1270,41.898379,12.457616,Rome,"Villa Mater Dei",4bd4486fb221c9b6fb3edbd0,0,"Bed & Breakfast",http://tour-pedia.org/api/getPlaceDetails?id=1270,http://tour-pedia.org/api/getReviewsByPlaceId?placeId=1270
1282,"Papillo Hotel Rome","Via Arola 53",accommodation,Rome,41.931744,12.381277,http://tour-pedia.org/api/getPlaceDetails?id=1282,http://tour-pedia.org/api/getReviewsByPlaceId?placeId=1282
"Via Prenestina 944 00155 Roma Rome (Latium) Italy",accommodation,1294,41.8929067,12.6093372,Rome,"Eurostar Roma Congress",4bd70bfc304fce728b1533ab,0,Hotel,http://tour-pedia.org/api/getPlaceDetails?id=1294,http://tour-pedia.org/api/getReviewsByPlaceId?placeId=1294
"Via Emilio Lagostina 10 00156 Ponte Mammolo Roma R",accommodation,1296,41.9291343,12.5631466,Rome,"Armstrong Hotel Rome",4bd70f93304fce72cb1a33ab,0,Hotel,http://tour-pedia.org/api/getPlaceDetails?id=1296,http://tour-pedia.org/api/getReviewsByPlaceId?placeId=1296
1306,"Domina Capannelle Conference Hotel Rome","Via Siderno 37 00178 Statuario Roma Roma (Latium)",accommodation,Rome,41.835326837591,12.555078600709,http://tour-pedia.org/api/getPlaceDetails?id=1306,http://tour-pedia.org/api/getReviewsByPlaceId?placeId=1306
"Via degli Aceri 25",accommodation,1307,41.8783605,12.5636784,Rome,"Aceri Bed & Breakfast Rome",4bd73734304fce721a3933ab,0,"Bed & Breakfast",http://tour-pedia.org/api/getPlaceDetails?id=1307,http://tour-pedia.org/api/getReviewsByPlaceId?placeId=1307
"Via San Giuliano Terme 62 00148 Roma Roma (Latium)",accommodation,1309,41.8418847,12.4347681,Rome,"Milano Hotel Rome",4bd73a01304fce72b33c33ab,0,Hotel,http://tour-pedia.org/api/getPlaceDetails?id=1309,http://tour-pedia.org/api/getReviewsByPlaceId?placeId=1309
"Via Tuscolana, 1782",accommodation,1324,41.842854669614,12.583830356598,Rome,"B&B Hotel Roma Cinecittà",4bd76693304fce72f68033ab,0,Hotel,http://tour-pedia.org/api/getPlaceDetails?id=1324,http://tour-pedia.org/api/getReviewsByPlaceId?placeId=1324
"VIA AURELIA, 208",accommodation,1330,41.903326564541,12.44422938403,Rome,"Bonus Pastor Hotel Rome",4bd7b5f2304fce72feed33ab,0,Hotel,http://tour-pedia.org/api/getPlaceDetails?id=1330,http://tour-pedia.org/api/getReviewsByPlaceId?placeId=1330
"viale Guglielmo Marconi, 700",accommodation,1344,41.844629033032,12.47227191925,Rome,"Prime Hotel Area Rome",4bd85cc92ecdce72b1bfd0f2,0,Hotel,http://tour-pedia.org/api/getPlaceDetails?id=1344,http://tour-pedia.org/api/getReviewsByPlaceId?placeId=1344
"Via Cavalese 28",accommodation,1405,41.943705997441,12.440960373323,Rome,"Bed & Breakfast Bio Rome",4bdef28efe0e62b5b5120606,0,"Bed & Breakfast",http://tour-pedia.org/api/getPlaceDetails?id=1405,http://tour-pedia.org/api/getReviewsByPlaceId?placeId=1405
"Via Antonino Bongiorno 2 scala E1",accommodation,1407,41.907598,12.56662,Rome,"Colli Aniene Bed & Breakfast Rome",4bdef352fe0e62b539130606,0,"Bed & Breakfast",http://tour-pedia.org/api/getPlaceDetails?id=1407,http://tour-pedia.org/api/getReviewsByPlaceId?placeId=1407
"Via Salaria",accommodation,1418,41.991700776233,12.519123290302,Rome,"Bed and Breakfast Dei Parioli",4be06cbb4c55b651d86deab7,0,"Bed & Breakfast",http://tour-pedia.org/api/getPlaceDetails?id=1418,http://tour-pedia.org/api/getReviewsByPlaceId?placeId=1418
"Via Laurentina 5 F",accommodation,1428,41.8469411,12.4759002,Rome,"Park Hotel Amaranto Rome",4be18a158dd062b5304e3e3c,0,Hotel,http://tour-pedia.org/api/getPlaceDetails?id=1428,http://tour-pedia.org/api/getReviewsByPlaceId?placeId=1428
"Piazza Pupinia 2",accommodation,1431,41.86102668393,12.637507801115,Rome,"Myosotis Hotel Rome",4be18b268dd062b518503e3c,0,Hotel,http://tour-pedia.org/api/getPlaceDetails?id=1431,http://tour-pedia.org/api/getReviewsByPlaceId?placeId=1431
"Via Luigi Chiarini 179",accommodation,1434,41.7934589,12.47046,Rome,"Relais Michelangelo Residence Roma",4be18c7c8dd062b5ad523e3c,0,Hotel,http://tour-pedia.org/api/getPlaceDetails?id=1434,http://tour-pedia.org/api/getReviewsByPlaceId?placeId=1434
,accommodation,1641,41.919829,12.481123,Rome,"אורכידה אילת",4bf909c74a67c9282c4526cf,0,Hotel,http://tour-pedia.org/api/getPlaceDetails?id=1641,http://tour-pedia.org/api/getReviewsByPlaceId?placeId=1641
A1,accommodation,1715,42.00449,12.52903,Rome,"Area di Servizio Salaria Est",4c00d6e89cf52d7f3f6514e7,0,"Gas Station / Garage",http://tour-pedia.org/api/getPlaceDetails?id=1715,http://tour-pedia.org/api/getReviewsByPlaceId?placeId=1715
"P.le Champagnat, 2",accommodation,2071,41.822420003498,12.475519248956,Rome,"Hotel Villa EUR",4c205e2feac020a1ed7f4cc2,0,Hotel,http://tour-pedia.org/api/getPlaceDetails?id=2071,http://tour-pedia.org/api/getReviewsByPlaceId?placeId=2071
,accommodation,2324,41.844521535611,12.560524980198,Rome,"Domina Roma Capannelle",4c36358fdfb0e21e32adaaa8,0,Hotel,http://tour-pedia.org/api/getPlaceDetails?id=2324,http://tour-pedia.org/api/getReviewsByPlaceId?placeId=2324
,accommodation,2543,41.883862,12.440907,Rome,"Hotel Aran Mantegna",4c46256ff1d80f479415a33c,0,Hotel,http://tour-pedia.org/api/getPlaceDetails?id=2543,http://tour-pedia.org/api/getReviewsByPlaceId?placeId=2543
"Via della pisana, 370",accommodation,2591,41.868969297605,12.412136708438,Rome,"Holiday inn pisana",4c4a0ea09c8d2d7f536eff68,0,Hotel,http://tour-pedia.org/api/getPlaceDetails?id=2591,http://tour-pedia.org/api/getReviewsByPlaceId?placeId=2591
,accommodation,2813,41.701876,12.436508,Rome,Vives,4c5c613b9b28d13a1ea15670,0,"Bed & Breakfast",http://tour-pedia.org/api/getPlaceDetails?id=2813,http://tour-pedia.org/api/getReviewsByPlaceId?placeId=2813
3276,"Il Pepe Rpsa","Via della lucchina 178",accommodation,Rome,41.956527,12.396918,http://tour-pedia.org/api/getPlaceDetails?id=3276,http://tour-pedia.org/api/getReviewsByPlaceId?placeId=3276
,accommodation,3283,41.867916,12.52629,Rome,Aixam,4c878f1f9c808cfa6836151e,0,Hostel,http://tour-pedia.org/api/getPlaceDetails?id=3283,http://tour-pedia.org/api/getReviewsByPlaceId?placeId=3283
"via venanzio fortunato 34",accommodation,3314,41.919444675505,12.443518478136,Rome,"Club Paradiso Adv. Tour Operator",4c8a5d361eafb1f71d887935,0,Resort,http://tour-pedia.org/api/getPlaceDetails?id=3314,http://tour-pedia.org/api/getReviewsByPlaceId?placeId=3314
3331,"Melia Roma",,accommodation,Rome,41.875756651652,12.394549488163,http://tour-pedia.org/api/getPlaceDetails?id=3331,http://tour-pedia.org/api/getReviewsByPlaceId?placeId=3331
"Via aldobrandeschi 14",accommodation,3382,41.878341223818,12.399853903564,Rome,"Parco Aldobrandeschi",4c8e38a7ad70a14347ad870f,0,"Bed & Breakfast",http://tour-pedia.org/api/getPlaceDetails?id=3382,http://tour-pedia.org/api/getReviewsByPlaceId?placeId=3382
"Via della Pisana 374",accommodation,3401,41.868623,12.412095,Rome,"Palast Pisana Roma",4c8fb257daa93704561057b1,0,Hotel,http://tour-pedia.org/api/getPlaceDetails?id=3401,http://tour-pedia.org/api/getReviewsByPlaceId?placeId=3401
"Via di Val Canutta, 134",accommodation,3933,41.898984,12.412169979096,Rome,"Casa Di Accoclienza Enrico De Osso",4cb613abb315a0937c449976,0,"Bed & Breakfast",http://tour-pedia.org/api/getPlaceDetails?id=3933,http://tour-pedia.org/api/getReviewsByPlaceId?placeId=3933
"Vicolo casale san nicola",accommodation,4046,42.00456100543,12.354528232022,Rome,"Casale San Nicola",4cc29ea7bde8f04da5b39f4b,0,Hotel,http://tour-pedia.org/api/getPlaceDetails?id=4046,http://tour-pedia.org/api/getReviewsByPlaceId?placeId=4046
4071,"Domina Roma Capannelle Hotel","Via Siderno 37",accommodation,Rome,41.8349373,12.555308,http://tour-pedia.org/api/getPlaceDetails?id=4071,http://tour-pedia.org/api/getReviewsByPlaceId?placeId=4071
,accommodation,4088,41.861823,12.421863,Rome,"Casa D'Amore",4cc444b806c25481f09f9547,0,"Bed & Breakfast",http://tour-pedia.org/api/getPlaceDetails?id=4088,http://tour-pedia.org/api/getReviewsByPlaceId?placeId=4088
"Via Bruno Serotini, 27",accommodation,4192,41.9807409,12.410080659464,Rome,"Casa del Sacro Cuore - Bed & Breakfast",4ccd73f6b571b60c2200d965,0,"Bed & Breakfast",http://tour-pedia.org/api/getPlaceDetails?id=4192,http://tour-pedia.org/api/getReviewsByPlaceId?placeId=4192
,accommodation,4436,41.883416033307,12.399311140744,Rome,"Summit Hotel",4ce78f94948f224ba4fcea5d,0,Hotel,http://tour-pedia.org/api/getPlaceDetails?id=4436,http://tour-pedia.org/api/getReviewsByPlaceId?placeId=4436
,accommodation,4517,41.868005180034,12.412198265721,Rome,"Pisana Palace Hotel",4cf177401d18a143529953ec,0,Hotel,http://tour-pedia.org/api/getPlaceDetails?id=4517,http://tour-pedia.org/api/getReviewsByPlaceId?placeId=4517
"Via di Monte Brianzo 62",accommodation,4634,42.063523001914,12.470379259753,Rome,"Fraterna Domus",4d008aa62685a35d7f5ec990,0,Hotel,http://tour-pedia.org/api/getPlaceDetails?id=4634,http://tour-pedia.org/api/getReviewsByPlaceId?placeId=4634
"Via Ibico 43",accommodation,4783,41.764603,12.370583,Rome,"Esmeralda Bed & Breakfast",4d120ada058fa35d13ff239f,0,"Bed & Breakfast",http://tour-pedia.org/api/getPlaceDetails?id=4783,http://tour-pedia.org/api/getReviewsByPlaceId?placeId=4783
"Via pontina",accommodation,4789,41.693399204156,12.479701960434,Rome,"Hotel Selene",4d12762f80f6721e36bf17eb,0,Hotel,http://tour-pedia.org/api/getPlaceDetails?id=4789,http://tour-pedia.org/api/getReviewsByPlaceId?placeId=4789
"Via delle Capannelle 132",accommodation,4998,41.831198758267,12.573727356644,Rome,"Hotel il Piccolo Borgo",4d2e260dd9d8a143c0d0f6d7,0,Hotel,http://tour-pedia.org/api/getPlaceDetails?id=4998,http://tour-pedia.org/api/getReviewsByPlaceId?placeId=4998
,accommodation,5079,41.798022,12.39116,Rome,"Marriot Rome Park",4d36be8b036c5481777b4689,0,Hotel,http://tour-pedia.org/api/getPlaceDetails?id=5079,http://tour-pedia.org/api/getReviewsByPlaceId?placeId=5079
"Via delle Capannelle,134",accommodation,5086,41.817152663082,12.576266017623,Rome,"Hotel Piccolo Borgo",4d3731384d8a6dcb7149683f,0,Hotel,http://tour-pedia.org/api/getPlaceDetails?id=5086,http://tour-pedia.org/api/getReviewsByPlaceId?placeId=5086
,accommodation,5091,41.921897,12.463695,Rome,Annetta,4d3841116eef54815de93e48,0,"Bed & Breakfast",http://tour-pedia.org/api/getPlaceDetails?id=5091,http://tour-pedia.org/api/getReviewsByPlaceId?placeId=5091
"Via Luigi Moretti, La Pisana",accommodation,5209,41.868749054364,12.411884883535,Rome,Waytostay,4d41e58daed776eb9a6f6897,0,Hotel,http://tour-pedia.org/api/getPlaceDetails?id=5209,http://tour-pedia.org/api/getReviewsByPlaceId?placeId=5209
"Via Ferdinando Verospi, Monteverde",accommodation,5210,41.87071,12.44837,Rome,Waytostay,4d41e5bfaed776eba2766897,0,Hotel,http://tour-pedia.org/api/getPlaceDetails?id=5210,http://tour-pedia.org/api/getReviewsByPlaceId?placeId=5210
"Via Lattanzio, Vaticano",accommodation,5211,41.9112,12.44129,Rome,Waytostay,4d41e602aed776eb2a7f6897,0,Hotel,http://tour-pedia.org/api/getPlaceDetails?id=5211,http://tour-pedia.org/api/getReviewsByPlaceId?placeId=5211
"Via Buccari, Vaticano",accommodation,5212,41.9126,12.4533,Rome,Waytostay,4d41e603aed776eb437f6897,0,Hotel,http://tour-pedia.org/api/getPlaceDetails?id=5212,http://tour-pedia.org/api/getReviewsByPlaceId?placeId=5212
"Viale di Torre Maura 81",accommodation,5290,41.861291,12.604045,Rome,"Alba hotel",4d4a9ad5b73fb1f7e558b332,0,Motel,http://tour-pedia.org/api/getPlaceDetails?id=5290,http://tour-pedia.org/api/getReviewsByPlaceId?placeId=5290
"Via Leonardo da Vinci, Via Mario Mameli",accommodation,5487,41.797775740695,12.589001655579,Rome,"ADR - Parcheggi Ciampino",4d5bb2b2ff226a31fe2d7169,0,Parking,http://tour-pedia.org/api/getPlaceDetails?id=5487,http://tour-pedia.org/api/getReviewsByPlaceId?placeId=5487
"Via Monte Senario, 83",accommodation,5554,41.944564,12.532676,Rome,"Collegio ""I Gigli della Montagna""",4d61107e1939a35dd01429ee,0,Hostel,http://tour-pedia.org/api/getPlaceDetails?id=5554,http://tour-pedia.org/api/getReviewsByPlaceId?placeId=5554
,accommodation,5616,41.914133978094,12.520837326125,Rome,"Hotel Laura Piazza Bologna . Roma",4d66f4207579224b44b8fa99,0,Hotel,http://tour-pedia.org/api/getPlaceDetails?id=5616,http://tour-pedia.org/api/getReviewsByPlaceId?placeId=5616
"Viale Liegi 62",accommodation,5706,41.922271,12.493555,Rome,"Hotel Claridge",4d6d7b04cb0eb1f7ced8aca0,0,Hotel,http://tour-pedia.org/api/getPlaceDetails?id=5706,http://tour-pedia.org/api/getReviewsByPlaceId?placeId=5706
,accommodation,5763,41.840417,12.463259,Rome,"Scuola Dei Campioni",4d71fef6bce5721e3663c715,0,"Bed & Breakfast",http://tour-pedia.org/api/getPlaceDetails?id=5763,http://tour-pedia.org/api/getReviewsByPlaceId?placeId=5763
"Via Baldo degli Ubaldi 13",accommodation,5791,41.898857,12.429462,Rome,"Apartment Close To Vatican",4d73ae8e4ab5224b7e72d097,0,"Bed & Breakfast",http://tour-pedia.org/api/getPlaceDetails?id=5791,http://tour-pedia.org/api/getReviewsByPlaceId?placeId=5791
"Via Aurelia, 575",accommodation,5821,41.895254748459,12.419025736158,Rome,"Villa Maria Pia",4d753b39d6f06dcbef332108,0,Motel,http://tour-pedia.org/api/getPlaceDetails?id=5821,http://tour-pedia.org/api/getReviewsByPlaceId?placeId=5821
5903,"Hotel Capital Inn ****","Via Carlo Santarelli, 96",accommodation,Rome,41.8613436493,12.60665582787,http://tour-pedia.org/api/getPlaceDetails?id=5903,http://tour-pedia.org/api/getReviewsByPlaceId?placeId=5903
,accommodation,6026,41.819249772688,12.404789248172,Rome,Q8,4d81d28bbede548129a405d1,0,"Gas Station / Garage",http://tour-pedia.org/api/getPlaceDetails?id=6026,http://tour-pedia.org/api/getReviewsByPlaceId?placeId=6026
,accommodation,6212,41.910910377898,12.535934272307,Rome,"B&B Spqr",4d8bdac48169721edf432ffd,0,"Bed & Breakfast",http://tour-pedia.org/api/getPlaceDetails?id=6212,http://tour-pedia.org/api/getReviewsByPlaceId?placeId=6212
,accommodation,6528,41.904789,12.504281,Rome,"Hotel Continentale @ Rome",4d9c29d0e298548154d3c642,0,Hotel,http://tour-pedia.org/api/getPlaceDetails?id=6528,http://tour-pedia.org/api/getReviewsByPlaceId?placeId=6528
,accommodation,6927,41.935297,12.58459,Rome,"Peter Pan Hostel",4db1d6e25da32cf2df65da41,0,Hostel,http://tour-pedia.org/api/getPlaceDetails?id=6927,http://tour-pedia.org/api/getReviewsByPlaceId?placeId=6927
"Via Laurentina, 450",accommodation,7030,41.836257495643,12.484853569826,Rome,"Casa San Bernardo",4db8570043a1a75c1f7105f0,0,Hotel,http://tour-pedia.org/api/getPlaceDetails?id=7030,http://tour-pedia.org/api/getReviewsByPlaceId?placeId=7030
"Via Giovanni Giolitti 433",accommodation,7493,41.892969976325,12.51269868514,Rome,"Hotel Center 1",4dcfa2e21f6eb1227098e37e,0,Hotel,http://tour-pedia.org/api/getPlaceDetails?id=7493,http://tour-pedia.org/api/getReviewsByPlaceId?placeId=7493
,accommodation,7529,41.937733,12.619767,Rome,"oc hotel",4dd1a0ccfa767fb707810fb3,0,Hotel,http://tour-pedia.org/api/getPlaceDetails?id=7529,http://tour-pedia.org/api/getReviewsByPlaceId?placeId=7529
"Via Quintilio Varo 166",accommodation,7536,41.852046,12.56763,Rome,"Days in Rome",4dd2482ae4cd7f7178c4e111,0,"Bed & Breakfast",http://tour-pedia.org/api/getPlaceDetails?id=7536,http://tour-pedia.org/api/getReviewsByPlaceId?placeId=7536
"2 Via Cuma",accommodation,7554,41.882007,12.509358,Rome,"Dreaming Rome Hostel",4dd2deade4cd1b19130bc01f,0,Hostel,http://tour-pedia.org/api/getPlaceDetails?id=7554,http://tour-pedia.org/api/getReviewsByPlaceId?placeId=7554
,accommodation,7574,41.907215,12.414162,Rome,"Il sogno di Marina",4dd4548e7d8b194450c07650,0,"Bed & Breakfast",http://tour-pedia.org/api/getPlaceDetails?id=7574,http://tour-pedia.org/api/getReviewsByPlaceId?placeId=7574
"Via di passolombardo n.389",accommodation,7644,41.849847,12.626899,Rome,"Affittacamere  Reginella",4dd7df6d1838b8561cf1bed5,0,"Bed & Breakfast",http://tour-pedia.org/api/getPlaceDetails?id=7644,http://tour-pedia.org/api/getReviewsByPlaceId?placeId=7644
"Via della scuola 24",accommodation,7731,41.906696,12.420392,Rome,Calcata,4ddd24eb887775ea9c50d2e3,0,"Bed & Breakfast",http://tour-pedia.org/api/getPlaceDetails?id=7731,http://tour-pedia.org/api/getReviewsByPlaceId?placeId=7731
"Via della scuola 24",accommodation,7732,41.906696,12.420392,Rome,"L'isola Che Non C'era",4ddd260bb0fba481fc91add5,0,"Bed & Breakfast",http://tour-pedia.org/api/getPlaceDetails?id=7732,http://tour-pedia.org/api/getReviewsByPlaceId?placeId=7732
,accommodation,7784,41.738223462894,12.282046373108,Rome,"Airport Palace Hotel Ostia",4de092a422713271e2b81ef4,0,Hotel,http://tour-pedia.org/api/getPlaceDetails?id=7784,http://tour-pedia.org/api/getReviewsByPlaceId?placeId=7784
"via Goiran 8",accommodation,7832,41.919896,12.45509,Rome,"Teulada Domus",4de20df4ae60e7f3abe66923,0,"Bed & Breakfast",http://tour-pedia.org/api/getPlaceDetails?id=7832,http://tour-pedia.org/api/getReviewsByPlaceId?placeId=7832
,accommodation,7895,41.878769735852,12.508318734009,Rome,"Piazza Tuscolo 17",4de58d7a2271f377c296ac77,0,Resort,http://tour-pedia.org/api/getPlaceDetails?id=7895,http://tour-pedia.org/api/getReviewsByPlaceId?placeId=7895
"Via Pier della Francesca 32",accommodation,7912,41.926616,12.463831,Rome,Almaxxi,4de75871b0fb2165e1a30946,0,"Bed & Breakfast",http://tour-pedia.org/api/getPlaceDetails?id=7912,http://tour-pedia.org/api/getReviewsByPlaceId?placeId=7912
"Via Delle Fornaci",accommodation,8014,41.899798909267,12.456057944248,Rome,"Bed & Breakfast@ Alle Fornaci Roma",4deb9eefd4c00071b841172a,0,"Bed & Breakfast",http://tour-pedia.org/api/getPlaceDetails?id=8014,http://tour-pedia.org/api/getReviewsByPlaceId?placeId=8014
"Via Colonnello Tommaso Masala, 54",accommodation,8066,41.827722626153,12.393457889557,Rome,"Rome Marriott Park Hotel",4def196eb0fbe76bc3bc05a7,0,Hotel,http://tour-pedia.org/api/getPlaceDetails?id=8066,http://tour-pedia.org/api/getReviewsByPlaceId?placeId=8066
,accommodation,8078,41.93521923,12.46912763,Rome,"Excel Hotel MonteMario",4defce5fe4cdcd6c3f332124,0,Hotel,http://tour-pedia.org/api/getPlaceDetails?id=8078,http://tour-pedia.org/api/getReviewsByPlaceId?placeId=8078
,accommodation,8250,41.963126187659,12.312290355152,Rome,"Castrum Boccea",4df853882271607ac917b0e2,0,Hotel,http://tour-pedia.org/api/getPlaceDetails?id=8250,http://tour-pedia.org/api/getReviewsByPlaceId?placeId=8250
,accommodation,8257,41.877031,12.559516,Rome,"G & N Hostel",4df8ce8d1495b7db1b0facfd,0,Hostel,http://tour-pedia.org/api/getPlaceDetails?id=8257,http://tour-pedia.org/api/getReviewsByPlaceId?placeId=8257
"Via lero 40",accommodation,8270,41.839127509042,12.459332988232,Rome,"first Floor",4df9bd9b7d8b1f1d6c0611f7,0,"Bed & Breakfast",http://tour-pedia.org/api/getPlaceDetails?id=8270,http://tour-pedia.org/api/getReviewsByPlaceId?placeId=8270
"via Bolsena, 4",accommodation,8278,41.939174484687,12.466467618942,Rome,"B&B 2passi da",4dfa1f028130130a73b69563,0,"Bed & Breakfast",http://tour-pedia.org/api/getPlaceDetails?id=8278,http://tour-pedia.org/api/getReviewsByPlaceId?placeId=8278
"Via emiliano Sarti",accommodation,8399,41.746638,12.321196,Rome,"Dany B&B",4e00648e52b1ac66aac6cde7,0,"Bed & Breakfast",http://tour-pedia.org/api/getPlaceDetails?id=8399,http://tour-pedia.org/api/getReviewsByPlaceId?placeId=8399
,accommodation,8442,41.733677966769,12.290839202137,Rome,"Casetta mia",4e025f6ac65ba423a7ad52a5,0,"Housing Development",http://tour-pedia.org/api/getPlaceDetails?id=8442,http://tour-pedia.org/api/getReviewsByPlaceId?placeId=8442
"Via dei campi d'annibale 7",accommodation,8671,41.92945,12.602582,Rome,"Locanda Dei Castelli",4e0e206e14956c6284f73f6b,0,"Bed & Breakfast",http://tour-pedia.org/api/getPlaceDetails?id=8671,http://tour-pedia.org/api/getReviewsByPlaceId?placeId=8671
,accommodation,8745,41.945662813195,12.606515686829,Rome,"Villa Giuliano",4e12c0f0b0fbfef99b9d3fdf,0,Hotel,http://tour-pedia.org/api/getPlaceDetails?id=8745,http://tour-pedia.org/api/getReviewsByPlaceId?placeId=8745
"Via Teulada 52",accommodation,8768,41.919663594706,12.455072650345,Rome,"B&B Teulada 52",4e14067588777cd5da306d0e,0,"Bed & Breakfast",http://tour-pedia.org/api/getPlaceDetails?id=8768,http://tour-pedia.org/api/getReviewsByPlaceId?placeId=8768
"Via Giovanni Giolitti, 208",accommodation,8781,41.893358928739,12.513169175803,Rome,"Sunshine Hostel",4e149e867d8b4c0d6310416c,0,Hostel,http://tour-pedia.org/api/getPlaceDetails?id=8781,http://tour-pedia.org/api/getReviewsByPlaceId?placeId=8781
"Via delle baleari",accommodation,8809,41.736776637473,12.29531693623,Rome,"Sea & Snow Viaggi",4e15e3aa18384368edd4007e,0,"Travel & Transport",http://tour-pedia.org/api/getPlaceDetails?id=8809,http://tour-pedia.org/api/getReviewsByPlaceId?placeId=8809
"Viale dei Colli Portuensi 555",accommodation,8923,41.858399,12.444463,Rome,"Casa Piggy",4e1acf5752b123a586ec604d,0,"Bed & Breakfast",http://tour-pedia.org/api/getPlaceDetails?id=8923,http://tour-pedia.org/api/getReviewsByPlaceId?placeId=8923
,accommodation,8963,41.947528,12.46586,Rome,"H House",4e1d0123fa7653a9b2dfb5b9,0,Hotel,http://tour-pedia.org/api/getPlaceDetails?id=8963,http://tour-pedia.org/api/getReviewsByPlaceId?placeId=8963
,accommodation,9040,41.83801,12.563309,Rome,"Scuola Guida Ciampino",4e207a6118a88345f040ed23,0,"Travel & Transport",http://tour-pedia.org/api/getPlaceDetails?id=9040,http://tour-pedia.org/api/getReviewsByPlaceId?placeId=9040
,accommodation,9068,41.892158743648,12.417872872052,Rome,Easybox,4e2174e822717a5245cab03a,0,"Travel & Transport",http://tour-pedia.org/api/getPlaceDetails?id=9068,http://tour-pedia.org/api/getReviewsByPlaceId?placeId=9068
"Largo Lorenzo Mossa 4",accommodation,9153,41.893299384614,12.420402472769,Rome,ClarHotel,4e245e581495f18f036a2797,0,Hotel,http://tour-pedia.org/api/getPlaceDetails?id=9153,http://tour-pedia.org/api/getReviewsByPlaceId?placeId=9153
,accommodation,9248,41.99498485,12.41860503,Rome,"Veio Residence Resort",4e282b66d4c0e361d9db1013,0,"Travel & Transport",http://tour-pedia.org/api/getPlaceDetails?id=9248,http://tour-pedia.org/api/getReviewsByPlaceId?placeId=9248
,accommodation,9286,41.93215,12.536165,Rome,"Villa Molas",4e2a9717483bb05f0594f082,0,Hotel,http://tour-pedia.org/api/getPlaceDetails?id=9286,http://tour-pedia.org/api/getReviewsByPlaceId?placeId=9286
"Via Ulisse Aldrovandi, 15",accommodation,9423,41.91870896802,12.484439192632,Rome,"Oliver Glowig",4e31ae25c65b93ca1a47728a,0,Restaurant,http://tour-pedia.org/api/getPlaceDetails?id=9423,http://tour-pedia.org/api/getReviewsByPlaceId?placeId=9423
"via Lucrezia Romana 95",accommodation,9461,41.82459925,12.5618222,Rome,"Hotel Giardino D'Europa",4e33522ce4cdf7a42ca5c7ab,0,Hotel,http://tour-pedia.org/api/getPlaceDetails?id=9461,http://tour-pedia.org/api/getReviewsByPlaceId?placeId=9461
"Via Francesco Gentile 135 Scala B 5° Piano",accommodation,9537,41.855207130074,12.589206771903,Rome,AmicoTravel,4e36a63c45dd1c42bf2acf4e,0,"Tech Startup",http://tour-pedia.org/api/getPlaceDetails?id=9537,http://tour-pedia.org/api/getReviewsByPlaceId?placeId=9537
"Via Barbarano Romano 19",accommodation,9565,41.980054457472,12.427361011505,Rome,"prime hotel",4e382031cc3f22289728818e,0,Hotel,http://tour-pedia.org/api/getPlaceDetails?id=9565,http://tour-pedia.org/api/getReviewsByPlaceId?placeId=9565
"Via Feronia, 25/27",accommodation,9601,41.91648931389,12.550699710846,Rome,"B&B Domus Tecla",4e399a79922ee3bf72faf707,0,"Bed & Breakfast",http://tour-pedia.org/api/getPlaceDetails?id=9601,http://tour-pedia.org/api/getReviewsByPlaceId?placeId=9601
"Via Bettolo 6",accommodation,9714,41.908523634334,12.447229791843,Rome,"Arches B&b",4e3ebca945dd68e3274a3700,0,"Bed & Breakfast",http://tour-pedia.org/api/getPlaceDetails?id=9714,http://tour-pedia.org/api/getReviewsByPlaceId?placeId=9714
,accommodation,9732,41.86559,12.531575,Rome,"Last Minute Tour",4e3fa3c0d4c058f9dc2140b2,0,"Travel & Transport",http://tour-pedia.org/api/getPlaceDetails?id=9732,http://tour-pedia.org/api/getReviewsByPlaceId?placeId=9732
"My Life",accommodation,9861,41.898627640619,12.559841366971,Rome,"7th Level Of HELL",4e46f390483b03d090e7e034,0,"Travel & Transport",http://tour-pedia.org/api/getPlaceDetails?id=9861,http://tour-pedia.org/api/getReviewsByPlaceId?placeId=9861
"Via di San Giovanni in Laterano 10",accommodation,9921,41.889978476628,12.494738101959,Rome,"2nd Floor",4e49a9aa922e15493deb791b,0,"Bed & Breakfast",http://tour-pedia.org/api/getPlaceDetails?id=9921,http://tour-pedia.org/api/getReviewsByPlaceId?placeId=9921
"Via Attio Labeone 16",accommodation,9998,41.865965495009,12.552266120911,Rome,L'Attico,4e4d9a4081308c328c6737f5,0,Hotel,http://tour-pedia.org/api/getPlaceDetails?id=9998,http://tour-pedia.org/api/getReviewsByPlaceId?placeId=9998
"Via delle Campanule 8",accommodation,10004,41.885968952271,12.568101882935,Rome,"The Roman Portrait",4e4e1f5231510f6fa1a62db0,0,"Bed & Breakfast",http://tour-pedia.org/api/getPlaceDetails?id=10004,http://tour-pedia.org/api/getReviewsByPlaceId?placeId=10004
"Via Baldo degli Ubaldi, 90",accommodation,10065,41.8986851754,12.433096101889,Rome,"Casa Lory",4e51258152b1e893ad725f1e,0,"Bed & Breakfast",http://tour-pedia.org/api/getPlaceDetails?id=10065,http://tour-pedia.org/api/getReviewsByPlaceId?placeId=10065
,accommodation,10227,41.977591934303,12.506996940286,Rome,Рим,4e57f70bd22d61e8f34206e3,0,"Travel & Transport",http://tour-pedia.org/api/getPlaceDetails?id=10227,http://tour-pedia.org/api/getReviewsByPlaceId?placeId=10227
"Via Predestina 170",accommodation,10286,41.891998291016,12.532428741455,Rome,"Pascià Room&Breakfest in Rome",4e5a131ed4c0ba8c11a6a1b3,0,Hotel,http://tour-pedia.org/api/getPlaceDetails?id=10286,http://tour-pedia.org/api/getReviewsByPlaceId?placeId=10286
"Via Arrigo Davila 25",accommodation,10397,41.869804,12.525789,Rome,"Davila 25",4e5ec6d3483bfbee51d0703b,0,"Bed & Breakfast",http://tour-pedia.org/api/getPlaceDetails?id=10397,http://tour-pedia.org/api/getReviewsByPlaceId?placeId=10397
"Piazza Francesco Baracca",accommodation,10432,41.795810835915,12.528533999317,Rome,"Aeroporto Militare Guidonia Montecelio",4e5fe7578877954de71882ef,0,Building,http://tour-pedia.org/api/getPlaceDetails?id=10432,http://tour-pedia.org/api/getReviewsByPlaceId?placeId=10432
"Via A. Aubry, 3",accommodation,10659,41.9116116,12.4538298,Rome,"Bed&Breakfast Almes",4e69133be4cda3907f1330c9,0,"Bed & Breakfast",http://tour-pedia.org/api/getPlaceDetails?id=10659,http://tour-pedia.org/api/getReviewsByPlaceId?placeId=10659
"Via Dell Otello Sacchetti",accommodation,10752,41.930378,12.42674,Rome,"Istituto Adorazione Del Sacro Cuore",4e6cab3045dd435bc12083a4,0,Hostel,http://tour-pedia.org/api/getPlaceDetails?id=10752,http://tour-pedia.org/api/getReviewsByPlaceId?placeId=10752
"Viale Di Tor Marancia, 56",accommodation,10792,41.852675367119,12.497464795977,Rome,"I Viaggi Di Sildan",4e6e19d87d8bbfa9af0b7b7b,0,"Travel & Transport",http://tour-pedia.org/api/getPlaceDetails?id=10792,http://tour-pedia.org/api/getReviewsByPlaceId?placeId=10792
,accommodation,10866,41.861267829262,12.635982669741,Rome,"Best Western #408",4e7129608877753731c97126,0,Hotel,http://tour-pedia.org/api/getPlaceDetails?id=10866,http://tour-pedia.org/api/getReviewsByPlaceId?placeId=10866
"Via Val Trompia, 86",accommodation,10915,41.934912170191,12.528130667358,Rome,"Viaggi Di Nerone",4e732bd5483b4dd0be136e1f,0,"Travel & Transport",http://tour-pedia.org/api/getPlaceDetails?id=10915,http://tour-pedia.org/api/getReviewsByPlaceId?placeId=10915
"Via Gioacchino Volpe 44",accommodation,10934,41.838745,12.62419,Rome,"Travel Agency",4e739f34d4c0c01bf8469c3b,0,"Travel & Transport",http://tour-pedia.org/api/getPlaceDetails?id=10934,http://tour-pedia.org/api/getReviewsByPlaceId?placeId=10934
,accommodation,10996,41.897819547224,12.464108563398,Rome,"Lungotevere Gianicolense",4e75c0c452b1c8e519966262,0,Resort,http://tour-pedia.org/api/getPlaceDetails?id=10996,http://tour-pedia.org/api/getReviewsByPlaceId?placeId=10996
,accommodation,11035,41.898923,12.432851,Rome,"Casa Vacanze Bdo Ubaldi 15",4e76f7771838f9188a8178f2,0,Hotel,http://tour-pedia.org/api/getPlaceDetails?id=11035,http://tour-pedia.org/api/getReviewsByPlaceId?placeId=11035
"Via Cassia 921/a",accommodation,11039,41.971134,12.434444,Rome,"Cassia Travel",4e7726c01495be5171db7333,0,"Travel & Transport",http://tour-pedia.org/api/getPlaceDetails?id=11039,http://tour-pedia.org/api/getReviewsByPlaceId?placeId=11039
"Via di Torre Rossa 68",accommodation,11059,41.892441,12.426154,Rome,"Casa per Ferie Domus Nascimbeni",4e77b53bd22d80eb3432fd39,0,Hotel,http://tour-pedia.org/api/getPlaceDetails?id=11059,http://tour-pedia.org/api/getReviewsByPlaceId?placeId=11059
,accommodation,11064,41.801485608297,12.582649343804,Rome,"Centro Operativo Aeromobili del CFS - Aeroporto di Ciampino",4e784096b993adb6bdc3b5da,0,"Military Base",http://tour-pedia.org/api/getPlaceDetails?id=11064,http://tour-pedia.org/api/getReviewsByPlaceId?placeId=11064
"Via Franco Sacchetti",accommodation,11312,41.949465,12.546082,Rome,Caesartour,4e8043f59a52512558dbbaf1,0,"Travel & Transport",http://tour-pedia.org/api/getPlaceDetails?id=11312,http://tour-pedia.org/api/getReviewsByPlaceId?placeId=11312
"Via di Castel di Leva 108",accommodation,11411,41.785958340437,12.499699345963,Rome,"all ways",4e84a06746900ab171434aa7,0,Hotel,http://tour-pedia.org/api/getPlaceDetails?id=11411,http://tour-pedia.org/api/getReviewsByPlaceId?placeId=11411
"Via dei Carraresi, 27",accommodation,11424,41.8853,12.4292,Rome,"B Il Castelletto Hotel",4e84be902fb6611bdfd70a49,0,Hotel,http://tour-pedia.org/api/getPlaceDetails?id=11424,http://tour-pedia.org/api/getReviewsByPlaceId?placeId=11424
"Via dei Salesiani 58",accommodation,11437,41.856766231076,12.567277279846,Rome,"Vacanze del Sole",4e858eceb803d7900ffd94b1,0,"Travel & Transport",http://tour-pedia.org/api/getPlaceDetails?id=11437,http://tour-pedia.org/api/getReviewsByPlaceId?placeId=11437
"Piazza Cesare Cantù 9",accommodation,11441,41.8713366699,12.526954290587,Rome,"Agenzia viaggi ""e vado""",4e859cbc6da1ec154d1e2650,0,"Travel & Transport",http://tour-pedia.org/api/getPlaceDetails?id=11441,http://tour-pedia.org/api/getReviewsByPlaceId?placeId=11441
,accommodation,11575,41.855553026212,12.482188142846,Rome,"Casa di Tullio @ Roma",4e8ccc5c722e13d13aaff98d,0,"Bed & Breakfast",http://tour-pedia.org/api/getPlaceDetails?id=11575,http://tour-pedia.org/api/getReviewsByPlaceId?placeId=11575
"Piazza Monte Baldo, 8, 00141 Roma",accommodation,11633,41.936965942383,12.534068107605,Rome,ItalicaInTour,4e905cba9a52db7dba39187c,0,"Travel & Transport",http://tour-pedia.org/api/getPlaceDetails?id=11633,http://tour-pedia.org/api/getReviewsByPlaceId?placeId=11633
"Viale Degli Ammiragli, 67",accommodation,11647,41.90537038379,12.44452606261,Rome,AmmiragliRooms,4e90b578f79014e2cea54485,0,"Bed & Breakfast",http://tour-pedia.org/api/getPlaceDetails?id=11647,http://tour-pedia.org/api/getReviewsByPlaceId?placeId=11647
"Via Portuense",accommodation,11713,41.861288,12.452441,Rome,"Florlanini Flats",4e942afdb63439ea012b82d6,0,"Bed & Breakfast",http://tour-pedia.org/api/getPlaceDetails?id=11713,http://tour-pedia.org/api/getReviewsByPlaceId?placeId=11713
"Via St. Agnese",accommodation,11751,41.924087524414,12.517360687256,Rome,"Domus Agnese",4e96a83d02d5458d048a5fa9,0,"Bed & Breakfast",http://tour-pedia.org/api/getPlaceDetails?id=11751,http://tour-pedia.org/api/getReviewsByPlaceId?placeId=11751
,accommodation,11761,41.913614940688,12.617828417691,Rome,"Hotel Bernerhof @Switzerland ^^",4e9726485c5cc3f498600ec1,0,Hotel,http://tour-pedia.org/api/getPlaceDetails?id=11761,http://tour-pedia.org/api/getReviewsByPlaceId?placeId=11761
,accommodation,12017,41.897926798259,12.438631820432,Rome,"Nonni @ San Carlo",4ea2ef1bf7909c68de516210,0,Resort,http://tour-pedia.org/api/getPlaceDetails?id=12017,http://tour-pedia.org/api/getReviewsByPlaceId?placeId=12017
"Via delle Fornacci",accommodation,12161,41.892709920813,12.457745075226,Rome,"Bed & breakfast Carpe Diem",4eac6df9e5e83bfaeb6324a6,0,Hotel,http://tour-pedia.org/api/getPlaceDetails?id=12161,http://tour-pedia.org/api/getReviewsByPlaceId?placeId=12161
"Via Fosso degli Arcacci 102",accommodation,12226,42.070374127058,12.335473638041,Rome,"Casale delle Mimose",4eafb9600aafcac7e52f9e4b,0,"Bed & Breakfast",http://tour-pedia.org/api/getPlaceDetails?id=12226,http://tour-pedia.org/api/getReviewsByPlaceId?placeId=12226
"Via Braccianese km 11, 100,",accommodation,12238,42.034631851616,12.339448928833,Rome,"Agriturismo Casali Santa Brigida",4eb014a10cd6528d8349961a,0,"Bed & Breakfast",http://tour-pedia.org/api/getPlaceDetails?id=12238,http://tour-pedia.org/api/getReviewsByPlaceId?placeId=12238
,accommodation,12366,41.880136287637,12.38601706505,Rome,"Momo's Villa",4eb9a1eab803c11bf0b4b0b1,0,"Bed & Breakfast",http://tour-pedia.org/api/getPlaceDetails?id=12366,http://tour-pedia.org/api/getReviewsByPlaceId?placeId=12366
,accommodation,12478,41.869404671689,12.464018984526,Rome,"Il Granello di Senape",4ec28f6d30f82a2e1459a179,0,"Bed & Breakfast",http://tour-pedia.org/api/getPlaceDetails?id=12478,http://tour-pedia.org/api/getReviewsByPlaceId?placeId=12478
,accommodation,12570,41.856450280241,12.490016611967,Rome,"Nh Hotel Villa Carpegna",4ec8c71ccc21b428e49a2443,0,Hotel,http://tour-pedia.org/api/getPlaceDetails?id=12570,http://tour-pedia.org/api/getReviewsByPlaceId?placeId=12570
,accommodation,12582,41.835189563774,12.554955331731,Rome,"All'ombra Dell'appia Antica",4ec958086da1d10930cca73f,0,"Bed & Breakfast",http://tour-pedia.org/api/getPlaceDetails?id=12582,http://tour-pedia.org/api/getReviewsByPlaceId?placeId=12582
,accommodation,12691,41.893551283653,12.434579356876,Rome,"Gregorius Close",4ed0b0c2e3007feb7dcf917e,0,"Bed & Breakfast",http://tour-pedia.org/api/getPlaceDetails?id=12691,http://tour-pedia.org/api/getReviewsByPlaceId?placeId=12691
"Via Luigi Zuppetta 11",accommodation,13057,41.841120586238,12.597182675816,Rome,"Andrea B&B",4eec360b2c5bafa617967b5e,0,"Bed & Breakfast",http://tour-pedia.org/api/getPlaceDetails?id=13057,http://tour-pedia.org/api/getReviewsByPlaceId?placeId=13057
"Alessandro Crivelli 10",accommodation,13184,41.868009905289,12.44467160333,Rome,"Roma BB",4ef78d570e013b212631dd01,0,"Bed & Breakfast",http://tour-pedia.org/api/getPlaceDetails?id=13184,http://tour-pedia.org/api/getReviewsByPlaceId?placeId=13184
,accommodation,13263,41.850810601087,12.477423007555,Rome,"Hotel Eurostars Saint John Rome",4f007b04f9abd5b391194883,0,Hotel,http://tour-pedia.org/api/getPlaceDetails?id=13263,http://tour-pedia.org/api/getReviewsByPlaceId?placeId=13263
"Piazza Vittorio Emanuele, 00185 Roma",accommodation,13308,41.959987321225,12.506050410954,Rome,"B&B Angela",4f043493c512408c656b32ca,0,"Bed & Breakfast",http://tour-pedia.org/api/getPlaceDetails?id=13308,http://tour-pedia.org/api/getReviewsByPlaceId?placeId=13308
"Via Cairelli, 6",accommodation,13339,41.923528,12.42217,Rome,"B&B Casa Moretto",4f06172a5c5c4a361b3c9842,0,"Bed & Breakfast",http://tour-pedia.org/api/getPlaceDetails?id=13339,http://tour-pedia.org/api/getReviewsByPlaceId?placeId=13339
"Viale XXI Aprile, 12",accommodation,13485,41.920045157099,12.519364149995,Rome,"My Guest Roma",4f10b867e4b0297e5576aafd,0,"Bed & Breakfast",http://tour-pedia.org/api/getPlaceDetails?id=13485,http://tour-pedia.org/api/getReviewsByPlaceId?placeId=13485
13627,"Hotel Roma","Via della stazione aurelia 99",accommodation,Rome,41.889670009509,12.40201938534,http://tour-pedia.org/api/getPlaceDetails?id=13627,http://tour-pedia.org/api/getReviewsByPlaceId?placeId=13627
,accommodation,13647,41.790250442228,12.423167189583,Rome,"la perla nera",4f1d9859e4b044fd37bb1888,0,"Bed & Breakfast",http://tour-pedia.org/api/getPlaceDetails?id=13647,http://tour-pedia.org/api/getReviewsByPlaceId?placeId=13647
"Largo Vincenzo Ambrosio, 9, 00136 Рим",accommodation,13661,41.904656585799,12.435060719271,Rome,"Park Hotel Dei Massimi",4f1f0386e4b0b73ef03b5a82,0,Hotel,http://tour-pedia.org/api/getPlaceDetails?id=13661,http://tour-pedia.org/api/getReviewsByPlaceId?placeId=13661
,accommodation,13765,41.884342193604,12.460693359375,Rome,"a casa cibella",4f287003e4b0b45ff36bfe52,0,"Bed & Breakfast",http://tour-pedia.org/api/getPlaceDetails?id=13765,http://tour-pedia.org/api/getReviewsByPlaceId?placeId=13765
"Via San Pancrazio 32/a",accommodation,13766,41.888060804078,12.460508668073,Rome,"Locanda San Pancrazio",4f2882e4e4b0715243046b1d,0,"Bed & Breakfast",http://tour-pedia.org/api/getPlaceDetails?id=13766,http://tour-pedia.org/api/getReviewsByPlaceId?placeId=13766
"Via Carlo Alberto 53",accommodation,13791,41.895686825831,12.657650384435,Rome,"Bed & Breakfast Domus Domas",4f2c26b2e4b0e6b070e99528,0,"Bed & Breakfast",http://tour-pedia.org/api/getPlaceDetails?id=13791,http://tour-pedia.org/api/getReviewsByPlaceId?placeId=13791
"Via Maremmana Inferiore, 00012 Guidonia Montecelio RM",accommodation,13812,41.90279030207,12.752628650818,Rome,"dimora adriana",4f2efb41e4b0d337d5869433,0,Hotel,http://tour-pedia.org/api/getPlaceDetails?id=13812,http://tour-pedia.org/api/getReviewsByPlaceId?placeId=13812
"via Salvatore Rebecchini",accommodation,13844,41.814192302134,12.397895493304,Rome,"Sheraton Golf 3",4f32eb7be4b06e8ecb60c0e2,0,Hotel,http://tour-pedia.org/api/getPlaceDetails?id=13844,http://tour-pedia.org/api/getReviewsByPlaceId?placeId=13844
"Inn Rome B&B",accommodation,13862,41.827452902264,12.612334485632,Rome,"Inn Rome",4f3582bee4b013ba9e0f4bd7,0,"Bed & Breakfast",http://tour-pedia.org/api/getPlaceDetails?id=13862,http://tour-pedia.org/api/getReviewsByPlaceId?placeId=13862
,accommodation,13932,41.698860168457,12.471360206604,Rome,"G Hotel",4f3e30fae4b0248b51497c37,0,Hotel,http://tour-pedia.org/api/getPlaceDetails?id=13932,http://tour-pedia.org/api/getReviewsByPlaceId?placeId=13932
,accommodation,13955,41.87194,12.56738,Rome,"Wirtshaushotel Alpenrose",4f4002d9e4b08089826f8656,0,Hotel,http://tour-pedia.org/api/getPlaceDetails?id=13955,http://tour-pedia.org/api/getReviewsByPlaceId?placeId=13955
"Via Clelia 46",accommodation,14024,41.873160223483,12.513835707555,Rome,"Apartment 'Sakura' Rome Accomodation",4f48a813e4b0426dbb1fd7f7,0,"Bed & Breakfast",http://tour-pedia.org/api/getPlaceDetails?id=14024,http://tour-pedia.org/api/getReviewsByPlaceId?placeId=14024
"Via Emanuele Filiberto, 130, 00185 Roma",accommodation,14158,41.895156369178,12.49044780936,Rome,"Coliseum Rooms",4f5147b8e4b0d9ab79327666,0,"Bed & Breakfast",http://tour-pedia.org/api/getPlaceDetails?id=14158,http://tour-pedia.org/api/getReviewsByPlaceId?placeId=14158
"Roma Ciampino (CIA)",accommodation,14217,41.7990679,12.59080504,Rome,"Hotel Orazia",4f54e09fe4b0b5d9e00c6327,0,Hotel,http://tour-pedia.org/api/getPlaceDetails?id=14217,http://tour-pedia.org/api/getReviewsByPlaceId?placeId=14217
"Via Sannio",accommodation,14249,41.882800016863,12.505848784417,Rome,"San Giovanni apartment",4f57e5ade4b027eb91946f0c,0,Hotel,http://tour-pedia.org/api/getPlaceDetails?id=14249,http://tour-pedia.org/api/getReviewsByPlaceId?placeId=14249
,accommodation,14381,41.926865042483,12.7387325243,Rome,"Agip Colle Tasso Sud",4f61aee2e4b034b45eed3179,0,"Gas Station / Garage",http://tour-pedia.org/api/getPlaceDetails?id=14381,http://tour-pedia.org/api/getReviewsByPlaceId?placeId=14381
"Via Attilio Beningi",accommodation,14491,41.927417,12.559455,Rome,"312 Room",4f667275e4b041039f88ea57,0,Hotel,http://tour-pedia.org/api/getPlaceDetails?id=14491,http://tour-pedia.org/api/getReviewsByPlaceId?placeId=14491
"Via Attilio Beningi 25",accommodation,14492,41.930224499787,12.560642651737,Rome,312,4f6672cee4b0c65cc616a7c4,0,Hotel,http://tour-pedia.org/api/getPlaceDetails?id=14492,http://tour-pedia.org/api/getReviewsByPlaceId?placeId=14492
"Via Pietro Baragiola, 24",accommodation,14635,41.871993591694,12.537340434193,Rome,"Hotel Laurence",4f7095dbe4b0f577d4b76fbc,0,Hotel,http://tour-pedia.org/api/getPlaceDetails?id=14635,http://tour-pedia.org/api/getReviewsByPlaceId?placeId=14635
"via del velodromo 66/68",accommodation,14641,41.869417017597,12.53383398056,Rome,"Agenzia Viaggi Spensierati",4f70e979bb3d2fb9cb085e21,0,"Travel Agency",http://tour-pedia.org/api/getPlaceDetails?id=14641,http://tour-pedia.org/api/getReviewsByPlaceId?placeId=14641
,accommodation,14655,41.964206,12.405855,Rome,"Hotel Villa Primavera",4f71f53ee4b0e8c482810c5c,0,Hotel,http://tour-pedia.org/api/getPlaceDetails?id=14655,http://tour-pedia.org/api/getReviewsByPlaceId?placeId=14655
,accommodation,14696,41.837859503014,12.426900224128,Rome,"B&B agli Arvali",4f754159e4b0e09b8abc8196,0,"Bed & Breakfast",http://tour-pedia.org/api/getPlaceDetails?id=14696,http://tour-pedia.org/api/getReviewsByPlaceId?placeId=14696
,accommodation,14745,41.892423308502,12.426088684404,Rome,"Domus Nascimbeni",4f776068e4b01af712dca935,0,Hotel,http://tour-pedia.org/api/getPlaceDetails?id=14745,http://tour-pedia.org/api/getReviewsByPlaceId?placeId=14745
"Via di Santa Lucia 10",accommodation,14841,41.91986101048,12.456740937082,Rome,"Hotel clodio, roma",4f7cb1cfe4b0015bec0443b3,0,Hotel,http://tour-pedia.org/api/getPlaceDetails?id=14841,http://tour-pedia.org/api/getReviewsByPlaceId?placeId=14841
"Foro Italico",accommodation,14867,41.871939996071,12.567378147076,Rome,"NH Palermo",4f7ddadad4f2554c7ea2812e,0,Hotel,http://tour-pedia.org/api/getPlaceDetails?id=14867,http://tour-pedia.org/api/getReviewsByPlaceId?placeId=14867
14883,"Home Sweet Home",,accommodation,Rome,41.879824425549,12.460822184751,http://tour-pedia.org/api/getPlaceDetails?id=14883,http://tour-pedia.org/api/getReviewsByPlaceId?placeId=14883
,accommodation,14896,41.861762725819,12.439034835779,Rome,"Szent István Ház",4f808995e4b0a6d0b632ce98,0,Hotel,http://tour-pedia.org/api/getPlaceDetails?id=14896,http://tour-pedia.org/api/getReviewsByPlaceId?placeId=14896
"Azone 8",accommodation,14926,41.899774498939,12.426239798257,Rome,"FlatInRome Cornelia Apartments",4f82d2f5e4b09a1478f67cbd,0,Hotel,http://tour-pedia.org/api/getPlaceDetails?id=14926,http://tour-pedia.org/api/getReviewsByPlaceId?placeId=14926
,accommodation,14956,41.930041522421,12.560648255147,Rome,226,4f84af23e4b02b876bb978c2,0,Hotel,http://tour-pedia.org/api/getPlaceDetails?id=14956,http://tour-pedia.org/api/getReviewsByPlaceId?placeId=14956
,accommodation,14972,41.818078039205,12.455254593178,Rome,"Viale degli Astri",4f86038ee4b0820432baf14a,0,"Home (private)",http://tour-pedia.org/api/getPlaceDetails?id=14972,http://tour-pedia.org/api/getReviewsByPlaceId?placeId=14972
,accommodation,14980,42.004348,12.399342,Rome,"Agriturismo Fendi",4f8698d7e4b0b12f94702750,0,Hotel,http://tour-pedia.org/api/getPlaceDetails?id=14980,http://tour-pedia.org/api/getReviewsByPlaceId?placeId=14980
,accommodation,15008,41.880693468227,12.42637971867,Rome,"Resort Regina Pacis",4f8814b9e4b056350e21fdf8,0,Hotel,http://tour-pedia.org/api/getPlaceDetails?id=15008,http://tour-pedia.org/api/getReviewsByPlaceId?placeId=15008
,accommodation,15017,41.919872394525,12.481415404664,Rome,"Sagittarius@Lord Byron",4f886da0e4b00a6260f53ba1,0,"Bed & Breakfast",http://tour-pedia.org/api/getPlaceDetails?id=15017,http://tour-pedia.org/api/getReviewsByPlaceId?placeId=15017
"Via Pomezia, 11, 00183 Roma",accommodation,15049,41.880344335166,12.511656891275,Rome,"B & B Dolce Virginia",4f8a6baae4b0202c072d1bcf,0,"Bed & Breakfast",http://tour-pedia.org/api/getPlaceDetails?id=15049,http://tour-pedia.org/api/getReviewsByPlaceId?placeId=15049
,accommodation,15165,41.910967132948,12.479242806555,Rome,"Cavalieri Hilton",4f9138f6e4b0fa3814193bbe,0,Hotel,http://tour-pedia.org/api/getPlaceDetails?id=15165,http://tour-pedia.org/api/getReviewsByPlaceId?placeId=15165
"Via Filippo Corridoni 27, Scala D, Int. 1",accommodation,15190,41.92194981764,12.459590435028,Rome,"Angelico Bed & Breakfast",4f92b00ee4b05b20f0083f16,0,"Bed & Breakfast",http://tour-pedia.org/api/getPlaceDetails?id=15190,http://tour-pedia.org/api/getReviewsByPlaceId?placeId=15190
,accommodation,15253,41.948032,12.5651321,Rome,"Hotel Des Bains",4f954642e4b00fe660611038,0,Hotel,http://tour-pedia.org/api/getPlaceDetails?id=15253,http://tour-pedia.org/api/getReviewsByPlaceId?placeId=15253
,accommodation,15381,41.883863526608,12.564312943496,Rome,"My Girlfriend's bed",4f9bf843e4b01da4ffc57600,0,"Boarding House",http://tour-pedia.org/api/getPlaceDetails?id=15381,http://tour-pedia.org/api/getReviewsByPlaceId?placeId=15381
,accommodation,15393,41.85851,12.641163,Rome,"B&B A Villa Gaia",4f9c444ae4b05e5ed7bc4bff,0,"Bed & Breakfast",http://tour-pedia.org/api/getPlaceDetails?id=15393,http://tour-pedia.org/api/getReviewsByPlaceId?placeId=15393
"Via Prato Della Corte",accommodation,15484,42.010006799222,12.432765870403,Rome,"Casa di Benedetta",4fa138bee4b0829ddf9db7ee,0,"Boarding House",http://tour-pedia.org/api/getPlaceDetails?id=15484,http://tour-pedia.org/api/getReviewsByPlaceId?placeId=15484
,accommodation,15496,41.872940063477,12.449216842651,Rome,"villino la ""Palma""",4fa251a5e4b06a702ed10e4a,0,Motel,http://tour-pedia.org/api/getPlaceDetails?id=15496,http://tour-pedia.org/api/getReviewsByPlaceId?placeId=15496
"Corso Mediterraneo 172",accommodation,15512,41.865707,12.438723,Rome,"Hotel Village Club SANTA CATERINA",4fa2da4ae4b0bfaac0f73428,0,Resort,http://tour-pedia.org/api/getPlaceDetails?id=15512,http://tour-pedia.org/api/getReviewsByPlaceId?placeId=15512
,accommodation,15536,41.789514193407,12.450711707825,Rome,"hotel eur suite-roma",4fa434ece4b0244335c31aa9,0,Hotel,http://tour-pedia.org/api/getPlaceDetails?id=15536,http://tour-pedia.org/api/getReviewsByPlaceId?placeId=15536
,accommodation,15569,41.890852775793,12.430683755071,Rome,"Marriott Rome Park",4fa584c2e4b041937605ad69,0,Hotel,http://tour-pedia.org/api/getPlaceDetails?id=15569,http://tour-pedia.org/api/getReviewsByPlaceId?placeId=15569
"Strada S.S. Salvatore Viterbo",accommodation,15593,41.920136244814,12.525901163534,Rome,"Hotel Villa Sofia Viterbo",4fa6acf5e4b038e6a34a8702,0,Hotel,http://tour-pedia.org/api/getPlaceDetails?id=15593,http://tour-pedia.org/api/getReviewsByPlaceId?placeId=15593
,accommodation,15699,41.981901,12.595155,Rome,"Eurohotel Roma Nord",4fac2dc4e4b0d8a3db481c98,0,Hotel,http://tour-pedia.org/api/getPlaceDetails?id=15699,http://tour-pedia.org/api/getReviewsByPlaceId?placeId=15699
"via ginori 7",accommodation,15872,41.878093719482,12.476723670959,Rome,"la casa sugli alberi",4fb6283ee4b04081a745cc4e,0,"Bed & Breakfast",http://tour-pedia.org/api/getPlaceDetails?id=15872,http://tour-pedia.org/api/getReviewsByPlaceId?placeId=15872
,accommodation,16025,41.824005700562,12.487171870023,Rome,"Green Mini Cooper",4fbd114be4b0d45a094f60ef,0,,http://tour-pedia.org/api/getPlaceDetails?id=16025,http://tour-pedia.org/api/getReviewsByPlaceId?placeId=16025
"Via Francesco Bolognesi 28",accommodation,16062,41.883876800537,12.458422660828,Rome,"Happy holiday home",4fbf6067e4b07c0ab0455498,0,Hostel,http://tour-pedia.org/api/getPlaceDetails?id=16062,http://tour-pedia.org/api/getReviewsByPlaceId?placeId=16062
"Via Dello Statuto 44",accommodation,16078,41.756644408525,12.302562190414,Rome,"Casa Carra",4fbff6dde4b0a6eab9076954,0,Hotel,http://tour-pedia.org/api/getPlaceDetails?id=16078,http://tour-pedia.org/api/getReviewsByPlaceId?placeId=16078
,accommodation,16085,41.937808272734,12.529245435538,Rome,"Villino Corbelli",4fc0a5b7e4b0c9a9f10dec90,0,"Bed & Breakfast",http://tour-pedia.org/api/getPlaceDetails?id=16085,http://tour-pedia.org/api/getReviewsByPlaceId?placeId=16085
"Via Clarice Tartufari 2",accommodation,16095,41.75739058122,12.438564651346,Rome,"Borgo di Torre Guidaccia Parco delle Nazioni",4fc0e975e4b089f18bce5ad1,0,"Bed & Breakfast",http://tour-pedia.org/api/getPlaceDetails?id=16095,http://tour-pedia.org/api/getReviewsByPlaceId?placeId=16095
,accommodation,16241,41.73467821909,12.466269675064,Rome,"Azienda Agricola Quarto Del Cuore",4fc90d06e4b079285bde2c32,0,"Bed & Breakfast",http://tour-pedia.org/api/getPlaceDetails?id=16241,http://tour-pedia.org/api/getReviewsByPlaceId?placeId=16241
"Via Dei Laterensi, 36",accommodation,16374,41.861014,12.550782,Rome,"Giorgio A Cinecittà",4fcfd984e4b0297e314da6b5,0,"Bed & Breakfast",http://tour-pedia.org/api/getPlaceDetails?id=16374,http://tour-pedia.org/api/getReviewsByPlaceId?placeId=16374
"19 Via Licia",accommodation,16396,41.880542933075,12.503272476649,Rome,"B & B Angetode",4fd1256be4b0d6a2d493173d,0,"Bed & Breakfast",http://tour-pedia.org/api/getPlaceDetails?id=16396,http://tour-pedia.org/api/getReviewsByPlaceId?placeId=16396
,accommodation,16397,41.926613,12.428215,Rome,"Room 506",4fd12d0ce4b065a3530c0a6d,0,Hotel,http://tour-pedia.org/api/getPlaceDetails?id=16397,http://tour-pedia.org/api/getReviewsByPlaceId?placeId=16397
,accommodation,16508,41.909254,12.589763,Rome,"Domidea first Floor",4fd50f9ce4b065401b44e0b3,0,Hotel,http://tour-pedia.org/api/getPlaceDetails?id=16508,http://tour-pedia.org/api/getReviewsByPlaceId?placeId=16508
,accommodation,16638,41.88135897045,12.422109425575,Rome,"La Pisana",4fdbb19fe4b0d5ec9cf1b2a0,0,"Bed & Breakfast",http://tour-pedia.org/api/getPlaceDetails?id=16638,http://tour-pedia.org/api/getReviewsByPlaceId?placeId=16638
"Via Sinuessa",accommodation,16656,41.877656953834,12.507618629497,Rome,"Zen House",4fdcb510e4b035f4789f4ce3,0,Hostel,http://tour-pedia.org/api/getPlaceDetails?id=16656,http://tour-pedia.org/api/getReviewsByPlaceId?placeId=16656
"Via Clelia 45",accommodation,16704,41.874725,12.526504,Rome,"Ottimista - Furio Camillo",4fde45d3e4b0ec5a8f97412b,0,"Bed & Breakfast",http://tour-pedia.org/api/getPlaceDetails?id=16704,http://tour-pedia.org/api/getReviewsByPlaceId?placeId=16704
,accommodation,16782,41.866859436035,12.444541931152,Rome,"albaromana B&B",4fe4db40e4b0972a1c9839e0,0,"Bed & Breakfast",http://tour-pedia.org/api/getPlaceDetails?id=16782,http://tour-pedia.org/api/getReviewsByPlaceId?placeId=16782
"Via Casilina 600",accommodation,16795,41.87663,12.548929,Rome,"Istituto Cavanis",4fe5aca1e4b0a0c3b007c51c,0,Hostel,http://tour-pedia.org/api/getPlaceDetails?id=16795,http://tour-pedia.org/api/getReviewsByPlaceId?placeId=16795
,accommodation,16806,41.945082,12.517358,Rome,"MM Mansion",4fe618e5e4b0176e694d0416,0,Hotel,http://tour-pedia.org/api/getPlaceDetails?id=16806,http://tour-pedia.org/api/getReviewsByPlaceId?placeId=16806
,accommodation,16811,41.947591,12.381276,Rome,"Suore Caldee",4fe63939e4b0c7d6bb2c56c3,0,"Bed & Breakfast",http://tour-pedia.org/api/getPlaceDetails?id=16811,http://tour-pedia.org/api/getReviewsByPlaceId?placeId=16811
,accommodation,16892,41.904447,12.426881,Rome,Waldorfroma,4feb63ace4b04fce7c320fb6,0,Resort,http://tour-pedia.org/api/getPlaceDetails?id=16892,http://tour-pedia.org/api/getReviewsByPlaceId?placeId=16892
"Via Edoardo Jenner, 10A",accommodation,16898,41.874310324936,12.444587637507,Rome,"Casa Adele",4fec4967e4b07d369726a017,0,"Boarding House",http://tour-pedia.org/api/getPlaceDetails?id=16898,http://tour-pedia.org/api/getReviewsByPlaceId?placeId=16898
"Via Andrea Ferrera 33",accommodation,16991,41.891390772917,12.417822504471,Rome,"Hotel Princess Swimming Pool",4ff1c364e4b018b0682c53c5,0,"Hotel Pool",http://tour-pedia.org/api/getPlaceDetails?id=16991,http://tour-pedia.org/api/getReviewsByPlaceId?placeId=16991
,accommodation,17010,41.93131,12.527869,Rome,"Room 103 so gay",4ff31e14e4b097fe0b16d8a6,0,Hotel,http://tour-pedia.org/api/getPlaceDetails?id=17010,http://tour-pedia.org/api/getReviewsByPlaceId?placeId=17010
Everywhere,accommodation,17018,41.914875,12.672244,Rome,"Supercar =P",4ff3e522e4b01a84ec44ad1c,0,,http://tour-pedia.org/api/getPlaceDetails?id=17018,http://tour-pedia.org/api/getReviewsByPlaceId?placeId=17018
"Via Dei Gozzadini",accommodation,17019,41.896178,12.434154,Rome,"Villa Emilia",4ff3e8bfe4b0c98ddb6bf56c,0,Hotel,http://tour-pedia.org/api/getPlaceDetails?id=17019,http://tour-pedia.org/api/getReviewsByPlaceId?placeId=17019
"Via Leone Dehon 61",accommodation,17045,41.891763420378,12.43512788628,Rome,"Adagio City Aparthotel",4ff590d1e4b0f33162001600,0,Hotel,http://tour-pedia.org/api/getPlaceDetails?id=17045,http://tour-pedia.org/api/getReviewsByPlaceId?placeId=17045
,accommodation,17116,41.931415,12.527612,Rome,"Ontvangst balie Hotel Noba",4ff9adbbe4b025109b440176,0,Hotel,http://tour-pedia.org/api/getPlaceDetails?id=17116,http://tour-pedia.org/api/getReviewsByPlaceId?placeId=17116
,accommodation,17344,41.718593,12.445958,Rome,"Mercedes CL 63 AMG",5034c26de4b0b37a4540d54c,0,,http://tour-pedia.org/api/getPlaceDetails?id=17344,http://tour-pedia.org/api/getReviewsByPlaceId?placeId=17344
,accommodation,17474,41.729799295103,12.276512780996,Rome,"Hotel belvedere",500d9ec9e4b0c2624450cdd7,0,Motel,http://tour-pedia.org/api/getPlaceDetails?id=17474,http://tour-pedia.org/api/getReviewsByPlaceId?placeId=17474
"Via Ermanno Wolf Ferrari ,285",accommodation,17791,41.753851628741,12.372198708409,Rome,"hotel Best western  I triangoli",502021ede4b0997f806a4620,0,"Boarding House",http://tour-pedia.org/api/getPlaceDetails?id=17791,http://tour-pedia.org/api/getReviewsByPlaceId?placeId=17791
"Via Monte Senario 65",accommodation,17846,41.944363097477,12.533424512266,Rome,"B&B Caffettiere Filosofo",5022d43fe4b00d04bae658a7,0,"Bed & Breakfast",http://tour-pedia.org/api/getPlaceDetails?id=17846,http://tour-pedia.org/api/getReviewsByPlaceId?placeId=17846
,accommodation,17914,41.90705,12.437447,Rome,"Domus aurelia",50273512e4b04e431c18b1f8,0,Hotel,http://tour-pedia.org/api/getPlaceDetails?id=17914,http://tour-pedia.org/api/getReviewsByPlaceId?placeId=17914
Italy,accommodation,18021,41.87194,12.56738,Rome,"Hotel venezuela",502e915ce4b0202f70c0f05a,0,Motel,http://tour-pedia.org/api/getPlaceDetails?id=18021,http://tour-pedia.org/api/getReviewsByPlaceId?placeId=18021
,accommodation,18143,41.9077,12.414683,Rome,"Villa Mater Redemptoris",5035fcade4b02f81d9d6f907,0,Hostel,http://tour-pedia.org/api/getPlaceDetails?id=18143,http://tour-pedia.org/api/getReviewsByPlaceId?placeId=18143
"Via Gabriele Rossetti, 7",accommodation,18189,41.882366522784,12.462395379711,Rome,"Monteverde Guesthouse",5037fee9e4b0d3a7939abd25,0,"Bed & Breakfast",http://tour-pedia.org/api/getPlaceDetails?id=18189,http://tour-pedia.org/api/getReviewsByPlaceId?placeId=18189
,accommodation,18246,41.819845449528,12.408762301381,Rome,"Sheraton Hotel Room 3033 Rome Italy",503ba529e4b0486977fef067,0,Hotel,http://tour-pedia.org/api/getPlaceDetails?id=18246,http://tour-pedia.org/api/getReviewsByPlaceId?placeId=18246
"Via di Tor Cervara, 277",accommodation,18406,41.909686980302,12.588229179382,Rome,"Troiani Bus Srl",504468e4e4b0805ba053ac52,0,Office,http://tour-pedia.org/api/getPlaceDetails?id=18406,http://tour-pedia.org/api/getReviewsByPlaceId?placeId=18406
Italia,accommodation,18497,41.871940612793,12.567379951477,Rome,"Giordano Hotel",504a79e7e4b027ee7e372d3c,0,Resort,http://tour-pedia.org/api/getPlaceDetails?id=18497,http://tour-pedia.org/api/getReviewsByPlaceId?placeId=18497
,accommodation,18652,41.929166,12.425865,Rome,"Bed And Breakfast Il Punto",5050fa76e4b0694f6456eaaa,0,"Bed & Breakfast",http://tour-pedia.org/api/getPlaceDetails?id=18652,http://tour-pedia.org/api/getReviewsByPlaceId?placeId=18652
,accommodation,18656,41.880996702424,12.501928339137,Rome,"st. johnvilla",505187b5e4b08eccb11de6da,0,"Bed & Breakfast",http://tour-pedia.org/api/getPlaceDetails?id=18656,http://tour-pedia.org/api/getReviewsByPlaceId?placeId=18656
"Via Del Gelsomino 100",accommodation,19087,41.896912223169,12.449429768134,Rome,"Bed & Breakfast Il Gelsomino",5067fbeee4b029655c65ef06,0,"Bed & Breakfast",http://tour-pedia.org/api/getPlaceDetails?id=19087,http://tour-pedia.org/api/getReviewsByPlaceId?placeId=19087
,accommodation,19152,41.9100132,12.3892909,Rome,"Hotel Pegaso",506b43ace4b001f3d0114f1b,0,Hotel,http://tour-pedia.org/api/getPlaceDetails?id=19152,http://tour-pedia.org/api/getReviewsByPlaceId?placeId=19152
"Via Grandidier 55",accommodation,19156,41.788491,12.522335,Rome,"B&B Helen's House",506bdc6ee4b08b169735ac92,0,"Bed & Breakfast",http://tour-pedia.org/api/getPlaceDetails?id=19156,http://tour-pedia.org/api/getReviewsByPlaceId?placeId=19156
"Via Paolo Emilio 71",accommodation,19169,41.910257655489,12.462496154507,Rome,"Giulietta A Roma - Casa Vacanze",506c7f41e4b00643aa15c2e8,0,Hotel,http://tour-pedia.org/api/getPlaceDetails?id=19169,http://tour-pedia.org/api/getReviewsByPlaceId?placeId=19169
"Via Alessandro Severo",accommodation,19187,41.855144500732,12.48362827301,Rome,"Casa Severo",506e0319e4b0e15bc37588e7,0,"Bed & Breakfast",http://tour-pedia.org/api/getPlaceDetails?id=19187,http://tour-pedia.org/api/getReviewsByPlaceId?placeId=19187
"Via Tessalonica 41",accommodation,19201,41.855358123779,12.475947380066,Rome,"La Cocca di Roma  B&B",506efcf1e4b03206db134433,0,"Bed & Breakfast",http://tour-pedia.org/api/getPlaceDetails?id=19201,http://tour-pedia.org/api/getReviewsByPlaceId?placeId=19201
"Via di Tor Bella Monaca, 449",accommodation,19202,41.871845755121,12.632689476013,Rome,"Roma VIII Municipio - Info Point Tor bella Monaca",506f1787582fd12fac55d397,0,"Campaign Office",http://tour-pedia.org/api/getPlaceDetails?id=19202,http://tour-pedia.org/api/getReviewsByPlaceId?placeId=19202
"Ruggero Fiore 3",accommodation,19217,41.905959350145,12.447028269429,Rome,"inn vatican",507021a2e4b083d7cdbbba4c,0,Hotel,http://tour-pedia.org/api/getPlaceDetails?id=19217,http://tour-pedia.org/api/getReviewsByPlaceId?placeId=19217
"Via Stanislao Carcereri 4",accommodation,19246,41.86595,12.492215,Rome,"Garbata E Bella",50714321e4b06489e00d96dc,0,"Bed & Breakfast",http://tour-pedia.org/api/getPlaceDetails?id=19246,http://tour-pedia.org/api/getReviewsByPlaceId?placeId=19246
"Marriott Park Hotel Rome",accommodation,19316,41.8252,12.3915,Rome,"Michelangelo Room 3",50751cdbe4b07a83bbdb0d24,0,Hotel,http://tour-pedia.org/api/getPlaceDetails?id=19316,http://tour-pedia.org/api/getReviewsByPlaceId?placeId=19316
"Marriott Park Hotel Rome",accommodation,19318,41.8175,12.3921,Rome,"Bramante 8 Room",50751d68e4b022f720c0c36b,0,Hotel,http://tour-pedia.org/api/getPlaceDetails?id=19318,http://tour-pedia.org/api/getReviewsByPlaceId?placeId=19318
,accommodation,19415,41.81275,12.406132,Rome,"Pinehurst Suite 2607",507bc1b6e4b00eb8628c1b84,0,Resort,http://tour-pedia.org/api/getPlaceDetails?id=19415,http://tour-pedia.org/api/getReviewsByPlaceId?placeId=19415
"Via Annia, 48",accommodation,19672,41.887467136503,12.496596749507,Rome,"Domus Flavio",508e90efe4b04ae5912d6e37,0,Hotel,http://tour-pedia.org/api/getPlaceDetails?id=19672,http://tour-pedia.org/api/getReviewsByPlaceId?placeId=19672
"Via Caffaro,13",accommodation,19731,41.864829,12.486004,Rome,"B&B La Pergamena",509306b3e4b07b04a9bebc96,0,"Bed & Breakfast",http://tour-pedia.org/api/getPlaceDetails?id=19731,http://tour-pedia.org/api/getReviewsByPlaceId?placeId=19731
"Via Degli Orti D'Alibert",accommodation,19787,41.896456893868,12.463022424339,Rome,"Orti D'Alibert",50978d5ae4b0a40e1da14434,0,"Boarding House",http://tour-pedia.org/api/getPlaceDetails?id=19787,http://tour-pedia.org/api/getReviewsByPlaceId?placeId=19787
"Via Del Bel Poggio 140",accommodation,19816,41.794841426555,12.507276980053,Rome,"Lea's Home",509975a9e4b0ad6020a23539,0,"Bed & Breakfast",http://tour-pedia.org/api/getPlaceDetails?id=19816,http://tour-pedia.org/api/getReviewsByPlaceId?placeId=19816
"Piazza Quinto Curzio 5.",accommodation,19832,41.856231,12.5677,Rome,"Casa Simpatia",509af625e4b0bd1e67295e81,0,"Bed & Breakfast",http://tour-pedia.org/api/getPlaceDetails?id=19832,http://tour-pedia.org/api/getReviewsByPlaceId?placeId=19832
,accommodation,19976,41.892103,12.532298,Rome,"Pascia R&B",509dfff4e4b03f3cc1c94497,0,"Bed & Breakfast",http://tour-pedia.org/api/getPlaceDetails?id=19976,http://tour-pedia.org/api/getReviewsByPlaceId?placeId=19976
"Via Anton Giulio Barrili",accommodation,19989,41.880610939657,12.460682221841,Rome,"Casetta degli Artisti",509e9778e4b0df8f7efea11d,0,"Boarding House",http://tour-pedia.org/api/getPlaceDetails?id=19989,http://tour-pedia.org/api/getReviewsByPlaceId?placeId=19989
"Viale Liegi 62",accommodation,20044,41.922163238434,12.493494237379,Rome,"Hilton Hotel Roma",50a41861e4b0df68000027c3,0,Hotel,http://tour-pedia.org/api/getPlaceDetails?id=20044,http://tour-pedia.org/api/getReviewsByPlaceId?placeId=20044
"Via Teggiano",accommodation,20079,41.892318725586,12.625878334045,Rome,"agriturismo barone antonio negri",50a796dfe4b0702a8212d341,0,Hotel,http://tour-pedia.org/api/getPlaceDetails?id=20079,http://tour-pedia.org/api/getReviewsByPlaceId?placeId=20079
"Via Carlo Pisacane 25",accommodation,20166,41.87730429813,12.46176833854,Rome,"Monica&alice B&B",50ad46dce4b0f6ec2b3c8e4b,0,"Bed & Breakfast",http://tour-pedia.org/api/getPlaceDetails?id=20166,http://tour-pedia.org/api/getReviewsByPlaceId?placeId=20166
"Via Appia Antica 228",accommodation,20221,41.84576,12.523404,Rome,"Casa Mora",50b0b6bbe4b04cb0a215665c,0,"Bed & Breakfast",http://tour-pedia.org/api/getPlaceDetails?id=20221,http://tour-pedia.org/api/getReviewsByPlaceId?placeId=20221
"40 Via Camillo",accommodation,20288,41.87553024292,12.525373458862,Rome,"bed & breakfast fumio camillo",50b66d1ce4b057a50bba51d5,0,"Bed & Breakfast",http://tour-pedia.org/api/getPlaceDetails?id=20288,http://tour-pedia.org/api/getReviewsByPlaceId?placeId=20288
"Via Sanremo, 1",accommodation,20394,41.881959176269,12.521431446075,Rome,"bed and breakfast",50befbd37ab4cbefb2f9de50,0,"Bed & Breakfast",http://tour-pedia.org/api/getPlaceDetails?id=20394,http://tour-pedia.org/api/getReviewsByPlaceId?placeId=20394
"via mocenigo",accommodation,20493,41.9074,12.4516,Rome,springhouse,50c78037e4b0e650d9995e4a,0,Hotel,http://tour-pedia.org/api/getPlaceDetails?id=20493,http://tour-pedia.org/api/getReviewsByPlaceId?placeId=20493
,accommodation,20541,41.881081753582,12.426821868314,Rome,"Bella roma B&B",50cb44bae4b0f2cbcafbbf45,0,"Bed & Breakfast",http://tour-pedia.org/api/getPlaceDetails?id=20541,http://tour-pedia.org/api/getReviewsByPlaceId?placeId=20541
"Via del Clementino, 94",accommodation,20628,41.903010447013,12.475356871019,Rome,"939 Hotel (Hotel Marcus)",50d0858ce4b0834917bbc554,0,Hotel,http://tour-pedia.org/api/getPlaceDetails?id=20628,http://tour-pedia.org/api/getReviewsByPlaceId?placeId=20628
,accommodation,20741,41.847869873047,12.451971054077,Rome,"Talpahof Rome",50db75f2e4b04248f14760e9,0,Hotel,http://tour-pedia.org/api/getPlaceDetails?id=20741,http://tour-pedia.org/api/getReviewsByPlaceId?placeId=20741
,accommodation,20811,41.94417,12.52607,Rome,"B&B Villino Corbelli",50e05d30e4b075c2eaaf983d,0,"Bed & Breakfast",http://tour-pedia.org/api/getPlaceDetails?id=20811,http://tour-pedia.org/api/getReviewsByPlaceId?placeId=20811
,accommodation,20933,41.947421549763,12.524066616925,Rome,"My sweet home",50ed5d10e4b0addb763cb07b,0,"Home (private)",http://tour-pedia.org/api/getPlaceDetails?id=20933,http://tour-pedia.org/api/getReviewsByPlaceId?placeId=20933
,accommodation,21002,41.895874023438,12.546209335327,Rome,"B&B The Condottieri",50f2808ce4b050bf983adc25,0,"Bed & Breakfast",http://tour-pedia.org/api/getPlaceDetails?id=21002,http://tour-pedia.org/api/getReviewsByPlaceId?placeId=21002
,accommodation,21099,41.937185549498,12.493511037759,Rome,"Hotel dello Sport",50fb06a5e4b0ff3fc696da4c,0,Hotel,http://tour-pedia.org/api/getPlaceDetails?id=21099,http://tour-pedia.org/api/getReviewsByPlaceId?placeId=21099
"Via Cavour 294",accommodation,21140,41.8947233926,12.501127464723,Rome,"Foro Romano Imperatori",51002b73e4b069c21107d0e5,0,Hotel,http://tour-pedia.org/api/getPlaceDetails?id=21140,http://tour-pedia.org/api/getReviewsByPlaceId?placeId=21140
"Via Fregene 5",accommodation,21152,41.866510803512,12.538931490738,Rome,"Cuore Matto",51019cbce4b0abd07d090c50,0,"Bed & Breakfast",http://tour-pedia.org/api/getPlaceDetails?id=21152,http://tour-pedia.org/api/getReviewsByPlaceId?placeId=21152
,accommodation,21169,41.704167553809,12.338543854093,Rome,"Bungalow 39",51030827e4b08a320ecff323,0,Resort,http://tour-pedia.org/api/getPlaceDetails?id=21169,http://tour-pedia.org/api/getReviewsByPlaceId?placeId=21169
"via Giuseppe Parini 7",accommodation,21185,41.87428665101,12.466107310325,Rome,"Relais St. Angel",51042b84e4b007845eaf54b3,0,Hotel,http://tour-pedia.org/api/getPlaceDetails?id=21185,http://tour-pedia.org/api/getReviewsByPlaceId?placeId=21185
,accommodation,21255,41.861481956784,12.606145715297,Rome,"Hotel Capital İnn Rm 201",510ad180e4b0d2dd435bb7d0,0,Hotel,http://tour-pedia.org/api/getPlaceDetails?id=21255,http://tour-pedia.org/api/getReviewsByPlaceId?placeId=21255
,accommodation,21258,42.04643,12.549508,Rome,"Hotel Capital Inn **** Rm 208",510b8ca3e4b0f2f198648886,0,Hotel,http://tour-pedia.org/api/getPlaceDetails?id=21258,http://tour-pedia.org/api/getReviewsByPlaceId?placeId=21258
"Largo Magna Grecia 14",accommodation,21300,41.883301121353,12.508417367935,Rome,"Breakfast In Bed B&B",510e46b272daa9b458b96a54,0,"Bed & Breakfast",http://tour-pedia.org/api/getPlaceDetails?id=21300,http://tour-pedia.org/api/getReviewsByPlaceId?placeId=21300
"Via Napoleone III, 86",accommodation,21324,41.93171,12.428543,Rome,Rhome86,5110ca08e4b06b28ace42149,0,"Bed & Breakfast",http://tour-pedia.org/api/getPlaceDetails?id=21324,http://tour-pedia.org/api/getReviewsByPlaceId?placeId=21324
,accommodation,21498,41.89394,12.462807,Rome,"Suore Del Sacro Cuore",512282a1e4b0ed97fbbd8414,0,Hostel,http://tour-pedia.org/api/getPlaceDetails?id=21498,http://tour-pedia.org/api/getReviewsByPlaceId?placeId=21498
"VIA CAPRAROLA 11",accommodation,21537,41.96856859,12.438808679581,Rome,bnb-ianus.it,51260993c84c398c679ff166,0,"Bed & Breakfast",http://tour-pedia.org/api/getPlaceDetails?id=21537,http://tour-pedia.org/api/getReviewsByPlaceId?placeId=21537
"via varenna 14",accommodation,21615,42.041468661292,12.466864585876,Rome,"BED BREAKFAST TONY E PATRIZIA ROMA",512f8cb3067de947b17e1bf9,0,"Bed & Breakfast",http://tour-pedia.org/api/getPlaceDetails?id=21615,http://tour-pedia.org/api/getReviewsByPlaceId?placeId=21615
"Via Acaia 50",accommodation,21643,41.876372,12.508033,Rome,"B&B Paola",5131c7e4e4b0303cd1fc8b34,0,"Bed & Breakfast",http://tour-pedia.org/api/getPlaceDetails?id=21643,http://tour-pedia.org/api/getReviewsByPlaceId?placeId=21643
"Rampa delle Mura Aurelie, 9",accommodation,21650,41.896974573784,12.4573802948,Rome,"Purple Home | Violet",5131f355e4b04f773c257452,0,Hotel,http://tour-pedia.org/api/getPlaceDetails?id=21650,http://tour-pedia.org/api/getReviewsByPlaceId?placeId=21650
"Via Cairo Montenotte 61",accommodation,21701,41.928128245204,12.423788309097,Rome,"La Pinetina casa vacanze Roma",513607747ab461ed43e4479e,0,"Bed & Breakfast",http://tour-pedia.org/api/getPlaceDetails?id=21701,http://tour-pedia.org/api/getReviewsByPlaceId?placeId=21701
,accommodation,21747,41.899924507187,12.419204822899,Rome,"Hotel Marc Aurelio SRL",513a056ae4b0d28a1195286d,0,"Bed & Breakfast",http://tour-pedia.org/api/getPlaceDetails?id=21747,http://tour-pedia.org/api/getReviewsByPlaceId?placeId=21747
,accommodation,21773,41.920913,12.411961,Rome,"Ostello Pacifico Peccia",513bdfa8e4b0fdf0dcc89297,0,"Bed & Breakfast",http://tour-pedia.org/api/getPlaceDetails?id=21773,http://tour-pedia.org/api/getReviewsByPlaceId?placeId=21773
"Viale di Tor di Quinto, 153",accommodation,21825,41.947545685011,12.48547911644,Rome,"Caserma Carabinieri Salvo D'Acquisto",51418395d63e1036b7ee3f2b,0,"Military Base",http://tour-pedia.org/api/getPlaceDetails?id=21825,http://tour-pedia.org/api/getReviewsByPlaceId?placeId=21825
,accommodation,21848,41.930261,12.520562,Rome,"Paris Hilton",514355c2e4b0b2f0a0396988,0,Hotel,http://tour-pedia.org/api/getPlaceDetails?id=21848,http://tour-pedia.org/api/getReviewsByPlaceId?placeId=21848
,accommodation,21881,41.878149,12.505371,Rome,"B&B Tosetto",51451355e4b0ff6e2bcddff8,0,"Bed & Breakfast",http://tour-pedia.org/api/getPlaceDetails?id=21881,http://tour-pedia.org/api/getReviewsByPlaceId?placeId=21881
,accommodation,22027,41.918878,12.446861,Rome,"Mike And Laura's Den",514dd6eee4b0fc615b3c4576,0,Hostel,http://tour-pedia.org/api/getPlaceDetails?id=22027,http://tour-pedia.org/api/getReviewsByPlaceId?placeId=22027
"Via Massimiliano Massimo,15",accommodation,22086,41.830278674697,12.456102730537,Rome,"MM Hotel",5150b3c9e4b0393592ced646,0,Hotel,http://tour-pedia.org/api/getPlaceDetails?id=22086,http://tour-pedia.org/api/getReviewsByPlaceId?placeId=22086
"Via Tommaso da Celano",accommodation,22095,41.870397358817,12.51589133834,Rome,"Oceanitis Agenzia",51516f20e4b08df1a016a151,0,"Travel Agency",http://tour-pedia.org/api/getPlaceDetails?id=22095,http://tour-pedia.org/api/getReviewsByPlaceId?placeId=22095
,accommodation,22173,41.914848327637,12.410588264465,Rome,"hotel Degli ambasciatori",5156284be4b00f5f8faab370,0,Hotel,http://tour-pedia.org/api/getPlaceDetails?id=22173,http://tour-pedia.org/api/getReviewsByPlaceId?placeId=22173
,accommodation,22183,41.928927,12.468048,Rome,"Best Western Hotel Astrid",515717ede4b0b5f7cdbcca0d,0,Hotel,http://tour-pedia.org/api/getPlaceDetails?id=22183,http://tour-pedia.org/api/getReviewsByPlaceId?placeId=22183
,accommodation,22249,41.930227,12.560605,Rome,"Room Ratchet",515c86d0e4b0deb7d37ebce1,0,Hotel,http://tour-pedia.org/api/getPlaceDetails?id=22249,http://tour-pedia.org/api/getReviewsByPlaceId?placeId=22249
"Parco dei Medici",accommodation,22271,41.819145,12.408362,Rome,"Sheraton Golf 1",515ea475e4b09e5bc0de0380,0,Hotel,http://tour-pedia.org/api/getPlaceDetails?id=22271,http://tour-pedia.org/api/getReviewsByPlaceId?placeId=22271
"Via dello Scalo di San Lorenzo 25",accommodation,22281,41.893756,12.516313,Rome,"B&B 25 Rooms",515f5ea9e4b092358711b68d,0,"Bed & Breakfast",http://tour-pedia.org/api/getPlaceDetails?id=22281,http://tour-pedia.org/api/getReviewsByPlaceId?placeId=22281
"Via Aurelia",accommodation,22349,41.89941,12.421894,Rome,"Jesis Magister",516200d9e4b09c80cc697cf8,0,Hotel,http://tour-pedia.org/api/getPlaceDetails?id=22349,http://tour-pedia.org/api/getReviewsByPlaceId?placeId=22349
"viale anicio gallo 196",accommodation,22400,41.850766991784,12.565698623657,Rome,"bb acquedotti antichi a roma",5165d2e429a60926704393c0,0,"Bed & Breakfast",http://tour-pedia.org/api/getPlaceDetails?id=22400,http://tour-pedia.org/api/getReviewsByPlaceId?placeId=22400
,accommodation,22408,41.896179,12.437747,Rome,"La Maison De Maria",5166b7cde4b057784003bf32,0,"Bed & Breakfast",http://tour-pedia.org/api/getPlaceDetails?id=22408,http://tour-pedia.org/api/getReviewsByPlaceId?placeId=22408
,accommodation,22445,41.87243,12.478058,Rome,"Abitart Hotel",51686168e4b0c53c23df9cba,0,Hotel,http://tour-pedia.org/api/getPlaceDetails?id=22445,http://tour-pedia.org/api/getReviewsByPlaceId?placeId=22445
"Via Della Pisana 1111",accommodation,22456,41.84830328454,12.372920353864,Rome,"Salesianum - Reception",51689987e4b0763fe0c9746e,0,Hostel,http://tour-pedia.org/api/getPlaceDetails?id=22456,http://tour-pedia.org/api/getReviewsByPlaceId?placeId=22456
,accommodation,22524,41.897295,12.557915,Rome,"Donato AirBnB",516b0377e4b034fe958ca277,0,"Bed & Breakfast",http://tour-pedia.org/api/getPlaceDetails?id=22524,http://tour-pedia.org/api/getReviewsByPlaceId?placeId=22524
"Via Arrigo Davila, 25",accommodation,22540,41.869877,12.525869,Rome,"Bed And Breakfast Davila 25",516c4b35e4b0ee18b1f6c2ab,0,"Bed & Breakfast",http://tour-pedia.org/api/getPlaceDetails?id=22540,http://tour-pedia.org/api/getReviewsByPlaceId?placeId=22540
"Via della Stazione di Salone 11",accommodation,22542,41.9163,12.6343,Rome,Mencarani,516cc5bfe4b06c0ca801a16e,0,Office,http://tour-pedia.org/api/getPlaceDetails?id=22542,http://tour-pedia.org/api/getReviewsByPlaceId?placeId=22542
,accommodation,22654,41.906664168791,12.449967173404,Rome,"Vaticano 84",5173aa42e4b01abc3b7e9e2a,0,Hotel,http://tour-pedia.org/api/getPlaceDetails?id=22654,http://tour-pedia.org/api/getReviewsByPlaceId?placeId=22654
"Via Delle Cave Di Pietralata 14",accommodation,22743,41.908742,12.536871,Rome,"Giulia's Home B&B",5179510ce4b0798280611219,0,"Bed & Breakfast",http://tour-pedia.org/api/getPlaceDetails?id=22743,http://tour-pedia.org/api/getReviewsByPlaceId?placeId=22743
,accommodation,22755,41.875169,12.528627,Rome,"Casa Ospitalità Sacri Cuori",517a137be4b018f2c2a80f7f,0,Hostel,http://tour-pedia.org/api/getPlaceDetails?id=22755,http://tour-pedia.org/api/getReviewsByPlaceId?placeId=22755
,accommodation,22778,41.879556,12.441895,Rome,"Domus Vitelia",517ad81e498ef2a2f0a67c6f,0,"Boarding House",http://tour-pedia.org/api/getPlaceDetails?id=22778,http://tour-pedia.org/api/getReviewsByPlaceId?placeId=22778
,accommodation,22782,41.887862804682,12.402299166378,Rome,"Room 214",517af0f4e4b0ea42107c7fb1,0,Hotel,http://tour-pedia.org/api/getPlaceDetails?id=22782,http://tour-pedia.org/api/getReviewsByPlaceId?placeId=22782
,accommodation,22786,41.88675673035,12.401319935778,Rome,"Room 322",517b1bd8e4b02894829c115f,0,Hostel,http://tour-pedia.org/api/getPlaceDetails?id=22786,http://tour-pedia.org/api/getReviewsByPlaceId?placeId=22786
,accommodation,22901,41.882521960971,12.394090679145,Rome,"Aurelia Park Resort",51828ae2498e3930a1d8b8fa,0,Hotel,http://tour-pedia.org/api/getPlaceDetails?id=22901,http://tour-pedia.org/api/getReviewsByPlaceId?placeId=22901
"Viale Vaticano 44",accommodation,22971,41.902305151297,12.446619627856,Rome,"Viale Vaticano 44",51863860498e9e0ae0b1ff46,0,"Boarding House",http://tour-pedia.org/api/getPlaceDetails?id=22971,http://tour-pedia.org/api/getReviewsByPlaceId?placeId=22971
,accommodation,22983,41.82528536898,12.392619145744,Rome,"Marriott fl.3***",518751fb498e3ec47c07a3cb,0,Hotel,http://tour-pedia.org/api/getPlaceDetails?id=22983,http://tour-pedia.org/api/getReviewsByPlaceId?placeId=22983
"Via Dei Gracchi 128",accommodation,23061,41.9085,12.46418,Rome,"BB Gracchi",518cf137498edfc9a8d2df41,0,"Bed & Breakfast",http://tour-pedia.org/api/getPlaceDetails?id=23061,http://tour-pedia.org/api/getReviewsByPlaceId?placeId=23061
"Via Sarsina",accommodation,23094,41.782188415527,12.410096168518,Rome,"adria hotel",518f4e6d498e36d15a6b4279,0,"Boarding House",http://tour-pedia.org/api/getPlaceDetails?id=23094,http://tour-pedia.org/api/getReviewsByPlaceId?placeId=23094
"Via Umberto Cagni 21",accommodation,23104,41.736520092149,12.259684528769,Rome,"Stella Maris Bed And Breakfast",518f8b79498e80c1aaefe1ca,0,"Bed & Breakfast",http://tour-pedia.org/api/getPlaceDetails?id=23104,http://tour-pedia.org/api/getReviewsByPlaceId?placeId=23104
,accommodation,23133,41.815030997578,12.399753184493,Rome,"Sheraton Golf 2",5191245f498eb9d7bab2d165,0,Hotel,http://tour-pedia.org/api/getPlaceDetails?id=23133,http://tour-pedia.org/api/getReviewsByPlaceId?placeId=23133
"Via Nomentana 421",accommodation,23154,41.929966097843,12.524752817942,Rome,"Hotel Deutscher Orden",51929b61498e01a25c78f5a2,0,"Bed & Breakfast",http://tour-pedia.org/api/getPlaceDetails?id=23154,http://tour-pedia.org/api/getReviewsByPlaceId?placeId=23154
"Via Carlo Fea",accommodation,23167,41.924392,12.520823,Rome,"Principe Torlonia",5193d13c498efbd0bdeba955,0,Hotel,http://tour-pedia.org/api/getPlaceDetails?id=23167,http://tour-pedia.org/api/getReviewsByPlaceId?placeId=23167
"Largo Camesena, 5",accommodation,23173,41.90887649215,12.535021116649,Rome,"Binario 26 Bed & Breakfast",519499cf498ee81b1dd1f2ca,0,"Bed & Breakfast",http://tour-pedia.org/api/getPlaceDetails?id=23173,http://tour-pedia.org/api/getReviewsByPlaceId?placeId=23173
"Via Pio VIII 18",accommodation,23195,41.899839,12.44319,Rome,"Casa Per Ferie Ravasco",519654f5498e4eb3907fdea4,0,"Boarding House",http://tour-pedia.org/api/getPlaceDetails?id=23195,http://tour-pedia.org/api/getReviewsByPlaceId?placeId=23195
,accommodation,23360,41.83809461543,12.556513013082,Rome,"B&B ombrantica",51a0a88e498ef54be0d5313d,0,"Bed & Breakfast",http://tour-pedia.org/api/getPlaceDetails?id=23360,http://tour-pedia.org/api/getReviewsByPlaceId?placeId=23360
,accommodation,23367,41.920815,12.513748,Rome,"Apto 314 Mercure Corso Trieste",51a0cb9f498ecc37004a3088,0,Hotel,http://tour-pedia.org/api/getPlaceDetails?id=23367,http://tour-pedia.org/api/getReviewsByPlaceId?placeId=23367
"Via Siderno 37,Appio Latino,Rome,Italy",accommodation,23433,41.839776,12.555187,Rome,"Hotel Capannelle",51a47950498e34732bdf48c8,0,Hotel,http://tour-pedia.org/api/getPlaceDetails?id=23433,http://tour-pedia.org/api/getReviewsByPlaceId?placeId=23433
"Via Siderno 37,Appio Latinio,Rome ,Italy",accommodation,23435,41.838916,12.554434,Rome,"Hotel Capannelle Rome ,Italy",51a483d8498e5eaf19da85eb,0,Hotel,http://tour-pedia.org/api/getPlaceDetails?id=23435,http://tour-pedia.org/api/getReviewsByPlaceId?placeId=23435
"Via Camesana 8",accommodation,23503,41.908386843079,12.536169565126,Rome,BiancoNotte,51aa35e1498ed9fd87811f09,0,"Bed & Breakfast",http://tour-pedia.org/api/getPlaceDetails?id=23503,http://tour-pedia.org/api/getReviewsByPlaceId?placeId=23503
,accommodation,23608,41.756693,12.314327,Rome,"Domus Gratiae",51b20863498eb28005becf63,0,"Bed & Breakfast",http://tour-pedia.org/api/getPlaceDetails?id=23608,http://tour-pedia.org/api/getReviewsByPlaceId?placeId=23608
,accommodation,23637,41.846521,12.545252,Rome,"Hotel Victor",51b36e89498e8654a554a37b,0,Hotel,http://tour-pedia.org/api/getPlaceDetails?id=23637,http://tour-pedia.org/api/getReviewsByPlaceId?placeId=23637
"Via Deli Ibernisi",accommodation,23675,41.915014,12.609414,Rome,"The Inn At The Roman Forum",51b63e15498ee2a08583fc26,0,Hotel,http://tour-pedia.org/api/getPlaceDetails?id=23675,http://tour-pedia.org/api/getReviewsByPlaceId?placeId=23675
,accommodation,23677,41.778678,12.341826,Rome,"Hotel Maximo",51b64545498edf3aedd124d5,0,Hotel,http://tour-pedia.org/api/getPlaceDetails?id=23677,http://tour-pedia.org/api/getReviewsByPlaceId?placeId=23677
,accommodation,23709,41.897463,12.48257,Rome,"Hotel Mancino12",51b8ddce498e422bb93c3b20,0,Hotel,http://tour-pedia.org/api/getPlaceDetails?id=23709,http://tour-pedia.org/api/getReviewsByPlaceId?placeId=23709
"Via Dei Saviorelli 54",accommodation,23750,41.896185,12.437752,Rome,Lamaisonmaria,51bafada498e3474b95a6ead,0,"Bed & Breakfast",http://tour-pedia.org/api/getPlaceDetails?id=23750,http://tour-pedia.org/api/getReviewsByPlaceId?placeId=23750
"Via Lisippo, 19",accommodation,23772,41.767905,12.371776,Rome,"Relais 19",51bc5828498eecb518374f95,0,Hotel,http://tour-pedia.org/api/getPlaceDetails?id=23772,http://tour-pedia.org/api/getReviewsByPlaceId?placeId=23772
,accommodation,23838,41.89005,12.419634,Rome,"Hotel Princess",51c159a9498e21916cf92f33,0,Hotel,http://tour-pedia.org/api/getPlaceDetails?id=23838,http://tour-pedia.org/api/getReviewsByPlaceId?placeId=23838
,accommodation,23856,41.908242944182,12.453762670552,Rome,Vaticanromebeds,51c2a9ec498eb4e78551ce81,0,"Bed & Breakfast",http://tour-pedia.org/api/getPlaceDetails?id=23856,http://tour-pedia.org/api/getReviewsByPlaceId?placeId=23856
"Via Baldo degli Ubaldi, 90",accommodation,23857,41.898635864258,12.432065010071,Rome,"Blue b&b",51c2aebf498eca491f526772,0,"Bed & Breakfast",http://tour-pedia.org/api/getPlaceDetails?id=23857,http://tour-pedia.org/api/getReviewsByPlaceId?placeId=23857
"Via Cassia 1826",accommodation,23942,42.016600601785,12.377546826566,Rome,"Casa Per Ferie Nostra Signora Del Sacro Cuore",51c7343d498e1c8b6c202aab,0,"Bed & Breakfast",http://tour-pedia.org/api/getPlaceDetails?id=23942,http://tour-pedia.org/api/getReviewsByPlaceId?placeId=23942
"Via Giuseppe Parini, 25",accommodation,23944,41.875140807967,12.4616955572,Rome,"The Charming Nest B&B",51c73a28498e4accdc96fa3a,0,"Bed & Breakfast",http://tour-pedia.org/api/getPlaceDetails?id=23944,http://tour-pedia.org/api/getReviewsByPlaceId?placeId=23944
"Via Bellagio 66/B",accommodation,23949,41.991740213752,12.494440662644,Rome,"Madea & Karine",51c7597d498edcb7f8fcb7c8,0,Resort,http://tour-pedia.org/api/getPlaceDetails?id=23949,http://tour-pedia.org/api/getReviewsByPlaceId?placeId=23949
"Via Di Casal Palocco 137",accommodation,24012,41.752195,12.348864,Rome,"Sinequa Roma",51cb54c4498ea0a0db351b2d,0,"Bed & Breakfast",http://tour-pedia.org/api/getPlaceDetails?id=24012,http://tour-pedia.org/api/getReviewsByPlaceId?placeId=24012
"Via Savonarola 39",accommodation,24068,41.912048339844,12.449725151062,Rome,"100 Passi Dalla Cappella Sistina",51cfcfdd498e39696a2d17cb,0,Hotel,http://tour-pedia.org/api/getPlaceDetails?id=24068,http://tour-pedia.org/api/getReviewsByPlaceId?placeId=24068
"C. Giancolense,",accommodation,24116,41.876191,12.445591,Rome,"Vacanze Romane",51d33499498e7eba685b939a,0,"Bed & Breakfast",http://tour-pedia.org/api/getPlaceDetails?id=24116,http://tour-pedia.org/api/getReviewsByPlaceId?placeId=24116
,accommodation,24185,41.881597,12.424188,Rome,"Great Northern Hotel",51d7481d498e309c5cd4097e,0,Hotel,http://tour-pedia.org/api/getPlaceDetails?id=24185,http://tour-pedia.org/api/getReviewsByPlaceId?placeId=24185
,accommodation,24186,41.881627,12.424254,Rome,"Great Northern Hotel",51d74861498ef6df2218f898,0,Hotel,http://tour-pedia.org/api/getPlaceDetails?id=24186,http://tour-pedia.org/api/getReviewsByPlaceId?placeId=24186
"41 Via Fregene",accommodation,24228,41.881837177209,12.509786166976,Rome,"Via Fregene",51d95d58498eaf46c8ffe23b,0,"Boarding House",http://tour-pedia.org/api/getPlaceDetails?id=24228,http://tour-pedia.org/api/getReviewsByPlaceId?placeId=24228
"Via Cornelio Nepote 21",accommodation,24233,41.91302,12.444526,Rome,"Apartment Francesca Scutari",51d9aa5c498e5972adace7f6,0,"Bed & Breakfast",http://tour-pedia.org/api/getPlaceDetails?id=24233,http://tour-pedia.org/api/getReviewsByPlaceId?placeId=24233
"Via del Casaletto, 538",accommodation,24244,41.857942322203,12.437534730358,Rome,"Al Casaletto",51da7990498e32f15cd66152,0,Hotel,http://tour-pedia.org/api/getPlaceDetails?id=24244,http://tour-pedia.org/api/getReviewsByPlaceId?placeId=24244
,accommodation,24309,41.891486,12.436273,Rome,"sul tetto del albergo cardinal st Petri",51df12f9498e85c2b71b67ad,0,"Hotel Pool",http://tour-pedia.org/api/getPlaceDetails?id=24309,http://tour-pedia.org/api/getReviewsByPlaceId?placeId=24309
"Via Della Pineta Sacchetti",accommodation,24442,41.929193812621,12.429407638788,Rome,"Congregazione Suore Dello Spirito Santo",51e85da7498ea81b8b7f1691,0,"Boarding House",http://tour-pedia.org/api/getPlaceDetails?id=24442,http://tour-pedia.org/api/getReviewsByPlaceId?placeId=24442
"Via Serpieri 10",accommodation,24547,41.922115325928,12.484925270081,Rome,"Terrazza Borghese",51eeaf55498ec3526021d9d4,0,"Boarding House",http://tour-pedia.org/api/getPlaceDetails?id=24547,http://tour-pedia.org/api/getReviewsByPlaceId?placeId=24547
,accommodation,24577,41.822546,12.41232,Rome,"Swimming Pool at Holiday In",51f0fc20498ef93405d7b8ca,0,Hotel,http://tour-pedia.org/api/getPlaceDetails?id=24577,http://tour-pedia.org/api/getReviewsByPlaceId?placeId=24577
,accommodation,24600,41.910895044446,12.447212998295,Rome,"Casa Prati",51f260c1498ebfe52532908e,0,"Boarding House",http://tour-pedia.org/api/getPlaceDetails?id=24600,http://tour-pedia.org/api/getReviewsByPlaceId?placeId=24600
"Via Buonnaroti 39",accommodation,24735,41.893876804073,12.502902837256,Rome,"Hostel Sunshine Roma",51fd90e7498ea641314d121b,0,Hostel,http://tour-pedia.org/api/getPlaceDetails?id=24735,http://tour-pedia.org/api/getReviewsByPlaceId?placeId=24735
"Via Gazometro,35",accommodation,24764,41.87208,12.478702,Rome,"B&b A Casa Di Barbara",52001fb5498e06234d3da288,0,"Bed & Breakfast",http://tour-pedia.org/api/getPlaceDetails?id=24764,http://tour-pedia.org/api/getReviewsByPlaceId?placeId=24764
"Sheraton Golf Parco de' Medici",accommodation,24850,41.82,12.4054,Rome,"Baltusrol Golf Club Room - 3424",5206b29a11d24e24213dcfa6,0,Hotel,http://tour-pedia.org/api/getPlaceDetails?id=24850,http://tour-pedia.org/api/getReviewsByPlaceId?placeId=24850
,accommodation,24899,41.930743,12.600818,Rome,Завтрак,520b2b84498e97244b7caaec,0,"Boarding House",http://tour-pedia.org/api/getPlaceDetails?id=24899,http://tour-pedia.org/api/getReviewsByPlaceId?placeId=24899
,accommodation,25003,41.811124,12.430084,Rome,"Pensione Mariuccia",5212811c11d22803abd4a7dd,0,"Boarding House",http://tour-pedia.org/api/getPlaceDetails?id=25003,http://tour-pedia.org/api/getReviewsByPlaceId?placeId=25003
,accommodation,25092,41.874145,12.454415,Rome,"Bed&breakfast Cherkotti.",521a3d0711d2469c7844a665,0,"Bed & Breakfast",http://tour-pedia.org/api/getPlaceDetails?id=25092,http://tour-pedia.org/api/getReviewsByPlaceId?placeId=25092
,accommodation,25146,41.873390197754,12.524785995483,Rome,"NH Hoteles NH Frankfurt Messe",521fcec5498e9170778d03c8,0,Hotel,http://tour-pedia.org/api/getPlaceDetails?id=25146,http://tour-pedia.org/api/getReviewsByPlaceId?placeId=25146
,accommodation,25154,41.90389,12.42711,Rome,Living,5220b9f611d2113dce286705,0,"Bed & Breakfast",http://tour-pedia.org/api/getPlaceDetails?id=25154,http://tour-pedia.org/api/getReviewsByPlaceId?placeId=25154
"Rampa Delle Mura Aurelie, 9",accommodation,25170,41.896775364818,12.456852903512,Rome,"Purple Home | Plum",5221feea11d2ebf3c5b5d442,0,Hotel,http://tour-pedia.org/api/getPlaceDetails?id=25170,http://tour-pedia.org/api/getReviewsByPlaceId?placeId=25170
"Via Ludovico Di Monreale",accommodation,25171,41.881626,12.45556,Rome,"Purple Home | Pansy",5222056b11d21d67d7a318e2,0,Hotel,http://tour-pedia.org/api/getPlaceDetails?id=25171,http://tour-pedia.org/api/getReviewsByPlaceId?placeId=25171
,accommodation,25195,41.841519,12.542635,Rome,"Quarto Messalina",5223971011d2218add0550e1,0,"Bed & Breakfast",http://tour-pedia.org/api/getPlaceDetails?id=25195,http://tour-pedia.org/api/getReviewsByPlaceId?placeId=25195
,accommodation,25231,41.887449478211,12.510413472312,Rome,"Mr.Rome Hotel & Hostel",5225d9fe11d2030cba283123,0,Hostel,http://tour-pedia.org/api/getPlaceDetails?id=25231,http://tour-pedia.org/api/getReviewsByPlaceId?placeId=25231
"Via Alberto Cadlolo 101",accommodation,25243,41.918908273509,12.446871530022,Rome,"Waldorf Astoria Hotel",522650cd11d221e063a612d8,0,Hotel,http://tour-pedia.org/api/getPlaceDetails?id=25243,http://tour-pedia.org/api/getReviewsByPlaceId?placeId=25243
"Via Clelia 46",accommodation,25274,41.874315,12.52616,Rome,Sakura,5229898011d207acfec1afb0,0,"Bed & Breakfast",http://tour-pedia.org/api/getPlaceDetails?id=25274,http://tour-pedia.org/api/getReviewsByPlaceId?placeId=25274
,accommodation,25276,41.837684631348,12.372979164124,Rome,"Agriturismo La Muratella",5229c52a498e941361c7864a,0,"Bed & Breakfast",http://tour-pedia.org/api/getPlaceDetails?id=25276,http://tour-pedia.org/api/getReviewsByPlaceId?placeId=25276
,accommodation,25293,41.951106,12.473234,Rome,"Stabilimento Snoopy A Sabaudia",522aeeda11d2b2f9aaeed7b1,0,Motel,http://tour-pedia.org/api/getPlaceDetails?id=25293,http://tour-pedia.org/api/getReviewsByPlaceId?placeId=25293
,accommodation,25331,41.874449,12.413424,Rome,"Villa Serena",522d660511d2348a375d1a5d,0,"Boarding House",http://tour-pedia.org/api/getPlaceDetails?id=25331,http://tour-pedia.org/api/getReviewsByPlaceId?placeId=25331
"Via Della Fonte Did Fauno, 4",accommodation,25346,41.882562,12.485329,Rome,"Vecchia Roma Resort",522e126711d234f156cf6987,0,"Bed & Breakfast",http://tour-pedia.org/api/getPlaceDetails?id=25346,http://tour-pedia.org/api/getReviewsByPlaceId?placeId=25346
"Viale Delle Milizie",accommodation,25367,41.91198,12.459525,Rome,"Apartment 12✌",522f7adf11d2c8541d92ec54,0,Hotel,http://tour-pedia.org/api/getPlaceDetails?id=25367,http://tour-pedia.org/api/getReviewsByPlaceId?placeId=25367
,accommodation,25377,41.910801151988,12.445371320934,Rome,"rome & suites",52307ec0498e7f7574b589e9,0,"Bed & Breakfast",http://tour-pedia.org/api/getPlaceDetails?id=25377,http://tour-pedia.org/api/getReviewsByPlaceId?placeId=25377
"72 Lungomare Duca degli Abruzzi",accommodation,25380,41.737659,12.253103,Rome,"Barceló Aran Blu",5230a4ad4dcbe5f000ca079c,0,Hotel,http://tour-pedia.org/api/getPlaceDetails?id=25380,http://tour-pedia.org/api/getReviewsByPlaceId?placeId=25380
,accommodation,25585,41.921805,12.457929,Rome,"Clodia House",523f54e5498e057b895ce5c5,0,"Bed & Breakfast",http://tour-pedia.org/api/getPlaceDetails?id=25585,http://tour-pedia.org/api/getReviewsByPlaceId?placeId=25585
,accommodation,25659,41.914716,12.459936,Rome,"BB AMICA ROMA",5246f052498edf91858b7fc4,0,"Bed & Breakfast",http://tour-pedia.org/api/getPlaceDetails?id=25659,http://tour-pedia.org/api/getReviewsByPlaceId?placeId=25659
"Viale Dei Consoli 191",accommodation,25702,41.865008610852,12.55108923542,Rome,"Domus Dei Consoli Bed & Breakfast Roma",524b2835498ef4827bb995fe,0,"Bed & Breakfast",http://tour-pedia.org/api/getPlaceDetails?id=25702,http://tour-pedia.org/api/getReviewsByPlaceId?placeId=25702
"Via Aurelia 564/566",accommodation,25746,41.899391,12.416568,Rome,"Villa Maria Pia",524fa91511d2eff51c38b5f4,0,"Bed & Breakfast",http://tour-pedia.org/api/getPlaceDetails?id=25746,http://tour-pedia.org/api/getReviewsByPlaceId?placeId=25746
"Via sanremo 12",accommodation,25757,41.882228851318,12.521108627319,Rome,"Damiani&sister bed and breakfast",5250487011d262a30cab81b3,0,"Bed & Breakfast",http://tour-pedia.org/api/getPlaceDetails?id=25757,http://tour-pedia.org/api/getReviewsByPlaceId?placeId=25757
,accommodation,25817,41.860238,12.558317,Rome,"Sara Domus B&B",5256dac2498e56a512c68aaa,0,Hostel,http://tour-pedia.org/api/getPlaceDetails?id=25817,http://tour-pedia.org/api/getReviewsByPlaceId?placeId=25817
,accommodation,25851,41.90358429904,12.5102846504,Rome,"Casa Aviatore",52592df211d2bece3233b1ec,0,Hotel,http://tour-pedia.org/api/getPlaceDetails?id=25851,http://tour-pedia.org/api/getReviewsByPlaceId?placeId=25851
,accommodation,25919,41.883396148682,12.361588478088,Rome,LillyBlue,525e7401498e25a9a5eaa851,0,,http://tour-pedia.org/api/getPlaceDetails?id=25919,http://tour-pedia.org/api/getReviewsByPlaceId?placeId=25919
,accommodation,25992,41.893603,12.611295,Rome,"Rock House 13",5266e040498ee1ff0f192014,0,Hotel,http://tour-pedia.org/api/getPlaceDetails?id=25992,http://tour-pedia.org/api/getReviewsByPlaceId?placeId=25992
,accommodation,26021,41.916706,12.526841,Rome,"Le Costellazioni B&B",526bcaa3498e97a7c4de8703,0,"Bed & Breakfast",http://tour-pedia.org/api/getPlaceDetails?id=26021,http://tour-pedia.org/api/getReviewsByPlaceId?placeId=26021
,accommodation,26025,41.864321,12.468196,Rome,Eco-bed-marela,526c1111498eae93781251a0,0,"Bed & Breakfast",http://tour-pedia.org/api/getPlaceDetails?id=26025,http://tour-pedia.org/api/getReviewsByPlaceId?placeId=26025
"Via di Monte D'Oro, 30",accommodation,26068,41.904586,12.476955,Rome,"J.K. Place Roma",5270d78011d2254b153c4b0a,0,Hotel,http://tour-pedia.org/api/getPlaceDetails?id=26068,http://tour-pedia.org/api/getReviewsByPlaceId?placeId=26068
,accommodation,26128,41.889039639003,12.471112729852,Rome,"Апартаменты S. Calisto Di, Via",527a3d2c498e06586d1b010d,0,"Bed & Breakfast",http://tour-pedia.org/api/getPlaceDetails?id=26128,http://tour-pedia.org/api/getReviewsByPlaceId?placeId=26128
226544,"A Casa Di Francy","Via Augusto Aubry, 3, Rome, Italy",accommodation,Rome,41.915244,12.454187,http://tour-pedia.org/api/getPlaceDetails?id=226544,http://tour-pedia.org/api/getReviewsByPlaceId?placeId=226544
226310,"Casale delle Mimose","Via Fosso degli Arcacci, 102, Rome, Italy",accommodation,Rome,42.070998,12.34934,http://tour-pedia.org/api/getPlaceDetails?id=226310,http://tour-pedia.org/api/getReviewsByPlaceId?placeId=226310
